{"type":"Topology","transform":{"scale":[0.0006751448225923243,0.0006415223141717159],"translate":[-51.044957,-22.922267]},"objects":{"state":{"type":"GeometryCollection","geometries":[{"type":"Polygon","arcs":[[0,1,2]],"properties":{"GEOCODIGO":3114550,"NOME":"Carneirinho","UF":"MG","ID_UF":31,"REGIAO":"Sudeste","MESOREGIAO":"207522,016447089","MICROREGIA":"FRUTAL","LATITUDE":-19.698,"LONGITUDE":-50.688,"SEDE":"Y","area":2.0752,"x":-51,"y":0,"x1":-5.082,"y1":-1.974}},{"type":"Polygon","arcs":[[3,4,5,-1,6]],"properties":{"GEOCODIGO":3138625,"NOME":"Limeira do Oeste","UF":"MG","ID_UF":31,"REGIAO":"Sudeste","MESOREGIAO":"133028,016615426","MICROREGIA":"FRUTAL","LATITUDE":-19.551,"LONGITUDE":-50.581,"SEDE":"Y","area":1.3302,"x":-51,"y":0,"x1":-5.064,"y1":-1.94}},{"type":"Polygon","arcs":[[7,8,9,10,11,-4]],"properties":{"GEOCODIGO":3159803,"NOME":"Santa Vitoria","UF":"MG","ID_UF":31,"REGIAO":"Sudeste","MESOREGIAO":"302628,025444961","MICROREGIA":"ITUIUTABA","LATITUDE":-18.839,"LONGITUDE":-50.121,"SEDE":"N","area":3.0262,"x":-50,"y":0,"x1":-5.027,"y1":-1.898}},{"type":"Polygon","arcs":[[-6,12,13,14,15,-2]],"properties":{"GEOCODIGO":3134400,"NOME":"Iturama","UF":"MG","ID_UF":31,"REGIAO":"Sudeste","MESOREGIAO":"141240,673921013","MICROREGIA":"FRUTAL","LATITUDE":-19.728,"LONGITUDE":-50.196,"SEDE":"Y","area":1.4124,"x":-50,"y":0,"x1":-5.034,"y1":-1.971}},{"type":"Polygon","arcs":[[-12,16,-13,-5]],"properties":{"GEOCODIGO":3170438,"NOME":"Uniao de Minas","UF":"MG","ID_UF":31,"REGIAO":"Sudeste","MESOREGIAO":"115739,215549114","MICROREGIA":"FRUTAL","LATITUDE":-19.53,"LONGITUDE":-50.336,"SEDE":"Y","area":1.1573,"x":-50,"y":0,"x1":-5.034,"y1":-1.94}},{"type":"Polygon","arcs":[[-17,-11,17,18,19,20,21,-14]],"properties":{"GEOCODIGO":3111101,"NOME":"Campina Verde","UF":"MG","ID_UF":31,"REGIAO":"Sudeste","MESOREGIAO":"368256,020353725","MICROREGIA":"FRUTAL","LATITUDE":-19.536,"LONGITUDE":-49.486,"SEDE":"Y","area":3.6825,"x":-50,"y":0,"x1":-4.98,"y1":-1.947}},{"type":"Polygon","arcs":[[22,23,-18,-10]],"properties":{"GEOCODIGO":3129103,"NOME":"Gurinhata","UF":"MG","ID_UF":31,"REGIAO":"Sudeste","MESOREGIAO":"185499,927017423","MICROREGIA":"ITUIUTABA","LATITUDE":-19.213,"LONGITUDE":-49.786,"SEDE":"Y","area":1.8549,"x":-50,"y":0,"x1":-4.986,"y1":-1.909}},{"type":"Polygon","arcs":[[-22,24,25,-15]],"properties":{"GEOCODIGO":3161304,"NOME":"Sao Francisco de Sales","UF":"MG","ID_UF":31,"REGIAO":"Sudeste","MESOREGIAO":"113691,645953864","MICROREGIA":"FRUTAL","LATITUDE":-19.863,"LONGITUDE":-49.774,"SEDE":"Y","area":1.1369,"x":-50,"y":0,"x1":-4.985,"y1":-1.979}},{"type":"Polygon","arcs":[[26,27,-23,-9]],"properties":{"GEOCODIGO":3131406,"NOME":"Ipiacu","UF":"MG","ID_UF":31,"REGIAO":"Sudeste","MESOREGIAO":"47159,7071405691","MICROREGIA":"ITUIUTABA","LATITUDE":-18.692,"LONGITUDE":-49.943,"SEDE":"Y","area":4.7159,"x":-50,"y":0,"x1":-4.993,"y1":-1.869}},{"type":"Polygon","arcs":[[-28,28,29,30,31,32,-19,-24]],"properties":{"GEOCODIGO":3134202,"NOME":"Ituiutaba","UF":"MG","ID_UF":31,"REGIAO":"Sudeste","MESOREGIAO":"259954,227109196","MICROREGIA":"ITUIUTABA","LATITUDE":-18.969,"LONGITUDE":-49.465,"SEDE":"Y","area":2.5995,"x":-50,"y":0,"x1":-4.954,"y1":-1.899}},{"type":"Polygon","arcs":[[-21,33,34,35,-25]],"properties":{"GEOCODIGO":3133402,"NOME":"Itapagipe","UF":"MG","ID_UF":31,"REGIAO":"Sudeste","MESOREGIAO":"180324,072299691","MICROREGIA":"FRUTAL","LATITUDE":-19.909,"LONGITUDE":-49.381,"SEDE":"Y","area":1.8032,"x":-49,"y":0,"x1":-4.942,"y1":-1.979}},{"type":"Polygon","arcs":[[36,37,38,-30]],"properties":{"GEOCODIGO":3112604,"NOME":"Capinopolis","UF":"MG","ID_UF":31,"REGIAO":"Sudeste","MESOREGIAO":"62584,6837620461","MICROREGIA":"ITUIUTABA","LATITUDE":-18.682,"LONGITUDE":-49.57,"SEDE":"Y","area":6.2584,"x":-50,"y":0,"x1":-4.958,"y1":-1.868}},{"type":"Polygon","arcs":[[39,40,-38]],"properties":{"GEOCODIGO":3109808,"NOME":"Cachoeira Dourada","UF":"MG","ID_UF":31,"REGIAO":"Sudeste","MESOREGIAO":"20262,5051396668","MICROREGIA":"ITUIUTABA","LATITUDE":-18.515,"LONGITUDE":-49.501,"SEDE":"Y","area":2.0262,"x":-49,"y":0,"x1":-4.947,"y1":-1.86}},{"type":"Polygon","arcs":[[41,42,43,44,45,-20,-33]],"properties":{"GEOCODIGO":3152808,"NOME":"Prata","UF":"MG","ID_UF":31,"REGIAO":"Sudeste","MESOREGIAO":"487286,583930797","MICROREGIA":"UBERLANDIA","LATITUDE":-19.307,"LONGITUDE":-48.924,"SEDE":"Y","area":4.8728,"x":-49,"y":0,"x1":-4.895,"y1":-1.932}},{"type":"Polygon","arcs":[[-39,-41,46,47,48,-31]],"properties":{"GEOCODIGO":3111804,"NOME":"Canapolis","UF":"MG","ID_UF":31,"REGIAO":"Sudeste","MESOREGIAO":"84919,1217912872","MICROREGIA":"UBERLANDIA","LATITUDE":-18.725,"LONGITUDE":-49.204,"SEDE":"Y","area":8.4919,"x":-49,"y":0,"x1":-4.927,"y1":-1.875}},{"type":"Polygon","arcs":[[-46,49,50,-34]],"properties":{"GEOCODIGO":3116902,"NOME":"Comendador Gomes","UF":"MG","ID_UF":31,"REGIAO":"Sudeste","MESOREGIAO":"104599,504339742","MICROREGIA":"FRUTAL","LATITUDE":-19.698,"LONGITUDE":-49.081,"SEDE":"N","area":1.0459,"x":-49,"y":0,"x1":-4.907,"y1":-1.967}},{"type":"Polygon","arcs":[[-35,-51,51,52,53,54,55,56]],"properties":{"GEOCODIGO":3127107,"NOME":"Frutal","UF":"MG","ID_UF":31,"REGIAO":"Sudeste","MESOREGIAO":"244043,045568088","MICROREGIA":"FRUTAL","LATITUDE":-20.025,"LONGITUDE":-48.941,"SEDE":"Y","area":2.4404,"x":-49,"y":0,"x1":-4.899,"y1":-2.003}},{"type":"Polygon","arcs":[[-56,57]],"properties":{"GEOCODIGO":3127008,"NOME":"Fronteira","UF":"MG","ID_UF":31,"REGIAO":"Sudeste","MESOREGIAO":"19931,5272407341","MICROREGIA":"FRUTAL","LATITUDE":-20.268,"LONGITUDE":-49.199,"SEDE":"Y","area":1.9931,"x":-49,"y":0,"x1":-4.915,"y1":-2.022}},{"type":"Polygon","arcs":[[58,59,60,-48]],"properties":{"GEOCODIGO":3115805,"NOME":"Centralina","UF":"MG","ID_UF":31,"REGIAO":"Sudeste","MESOREGIAO":"32276,9191099519","MICROREGIA":"UBERLANDIA","LATITUDE":-18.584,"LONGITUDE":-49.199,"SEDE":"Y","area":3.2276,"x":-49,"y":0,"x1":-4.916,"y1":-1.863}},{"type":"Polygon","arcs":[[-61,61,62,63,-42,-32,-49]],"properties":{"GEOCODIGO":3142809,"NOME":"Monte Alegre de Minas","UF":"MG","ID_UF":31,"REGIAO":"Sudeste","MESOREGIAO":"259958,285123044","MICROREGIA":"UBERLANDIA","LATITUDE":-18.871,"LONGITUDE":-48.881,"SEDE":"Y","area":2.5995,"x":-49,"y":0,"x1":-4.888,"y1":-1.884}},{"type":"Polygon","arcs":[[64,65,-62,-60]],"properties":{"GEOCODIGO":3103751,"NOME":"Arapora","UF":"MG","ID_UF":31,"REGIAO":"Sudeste","MESOREGIAO":"30041,9139516318","MICROREGIA":"UBERLANDIA","LATITUDE":-18.437,"LONGITUDE":-49.187,"SEDE":"Y","area":3.0041,"x":-49,"y":0,"x1":-4.912,"y1":-1.847}},{"type":"Polygon","arcs":[[66,67,68,-63,-66]],"properties":{"GEOCODIGO":3169604,"NOME":"Tupaciguara","UF":"MG","ID_UF":31,"REGIAO":"Sudeste","MESOREGIAO":"183389,784349193","MICROREGIA":"UBERLANDIA","LATITUDE":-18.593,"LONGITUDE":-48.705,"SEDE":"Y","area":1.8338,"x":-49,"y":0,"x1":-4.875,"y1":-1.853}},{"type":"Polygon","arcs":[[-45,69,70,71,-52,-50]],"properties":{"GEOCODIGO":3111408,"NOME":"Campo Florido","UF":"MG","ID_UF":31,"REGIAO":"Sudeste","MESOREGIAO":"126707,723729764","MICROREGIA":"UBERABA","LATITUDE":-19.761,"LONGITUDE":-48.572,"SEDE":"Y","area":1.267,"x":-49,"y":0,"x1":-4.864,"y1":-1.971}},{"type":"Polygon","arcs":[[-64,-69,72,73,74,75,-43]],"properties":{"GEOCODIGO":3170206,"NOME":"Uberlandia","UF":"MG","ID_UF":31,"REGIAO":"Sudeste","MESOREGIAO":"412677,868376425","MICROREGIA":"UBERLANDIA","LATITUDE":-18.919,"LONGITUDE":-48.277,"SEDE":"Y","area":4.1267,"x":-48,"y":0,"x1":-4.833,"y1":-1.902}},{"type":"Polygon","arcs":[[-72,76,77,-53]],"properties":{"GEOCODIGO":3150703,"NOME":"Pirajuba","UF":"MG","ID_UF":31,"REGIAO":"Sudeste","MESOREGIAO":"33259,7083954168","MICROREGIA":"FRUTAL","LATITUDE":-19.907,"LONGITUDE":-48.701,"SEDE":"Y","area":3.3259,"x":-49,"y":0,"x1":-4.865,"y1":-1.993}},{"type":"Polygon","arcs":[[-78,78,79,-54]],"properties":{"GEOCODIGO":3151602,"NOME":"Planura","UF":"MG","ID_UF":31,"REGIAO":"Sudeste","MESOREGIAO":"31791,3994328861","MICROREGIA":"FRUTAL","LATITUDE":-20.138,"LONGITUDE":-48.702,"SEDE":"Y","area":3.1791,"x":-49,"y":0,"x1":-4.864,"y1":-2.008}},{"type":"Polygon","arcs":[[80,81,82,83,-73,-68]],"properties":{"GEOCODIGO":3103504,"NOME":"Araguari","UF":"MG","ID_UF":31,"REGIAO":"Sudeste","MESOREGIAO":"273716,219990917","MICROREGIA":"UBERLANDIA","LATITUDE":-18.649,"LONGITUDE":-48.187,"SEDE":"Y","area":2.7371,"x":-48,"y":0,"x1":-4.822,"y1":-1.857}},{"type":"Polygon","arcs":[[-71,84,85,86,87,-79,-77]],"properties":{"GEOCODIGO":3117306,"NOME":"Conceicao das Alagoas","UF":"MG","ID_UF":31,"REGIAO":"Sudeste","MESOREGIAO":"135044,917046861","MICROREGIA":"UBERABA","LATITUDE":-19.915,"LONGITUDE":-48.388,"SEDE":"Y","area":1.3504,"x":-48,"y":0,"x1":-4.836,"y1":-1.995}},{"type":"Polygon","arcs":[[-44,-76,88,-85,-70]],"properties":{"GEOCODIGO":3171105,"NOME":"Verissimo","UF":"MG","ID_UF":31,"REGIAO":"Sudeste","MESOREGIAO":"103051,056636487","MICROREGIA":"UBERABA","LATITUDE":-19.663,"LONGITUDE":-48.308,"SEDE":"Y","area":1.0305,"x":-48,"y":0,"x1":-4.834,"y1":-1.96}},{"type":"Polygon","arcs":[[-75,89,90,91,92,93,94,95,-86,-89]],"properties":{"GEOCODIGO":3170107,"NOME":"Uberaba","UF":"MG","ID_UF":31,"REGIAO":"Sudeste","MESOREGIAO":"451854,522384596","MICROREGIA":"UBERABA","LATITUDE":-19.748,"LONGITUDE":-47.932,"SEDE":"Y","area":4.5185,"x":-48,"y":0,"x1":-4.797,"y1":-1.958}},{"type":"Polygon","arcs":[[-87,-96,96]],"properties":{"GEOCODIGO":3100708,"NOME":"agua Comprida","UF":"MG","ID_UF":31,"REGIAO":"Sudeste","MESOREGIAO":"49031,3296662433","MICROREGIA":"UBERABA","LATITUDE":-20.056,"LONGITUDE":-48.109,"SEDE":"Y","area":4.9031,"x":-48,"y":0,"x1":-4.808,"y1":-2}},{"type":"Polygon","arcs":[[-84,97,98,-90,-74]],"properties":{"GEOCODIGO":3130705,"NOME":"Indianopolis","UF":"MG","ID_UF":31,"REGIAO":"Sudeste","MESOREGIAO":"83483,572454795","MICROREGIA":"UBERLANDIA","LATITUDE":-19.039,"LONGITUDE":-47.917,"SEDE":"Y","area":8.3483,"x":-48,"y":0,"x1":-4.785,"y1":-1.895}},{"type":"Polygon","arcs":[[99,100,101,-82]],"properties":{"GEOCODIGO":3115003,"NOME":"Cascalho Rico","UF":"MG","ID_UF":31,"REGIAO":"Sudeste","MESOREGIAO":"36674,9868936585","MICROREGIA":"UBERLANDIA","LATITUDE":-18.576,"LONGITUDE":-47.877,"SEDE":"Y","area":3.6674,"x":-48,"y":0,"x1":-4.787,"y1":-1.856}},{"type":"Polygon","arcs":[[102,103,-94]],"properties":{"GEOCODIGO":3121258,"NOME":"Delta","UF":"MG","ID_UF":31,"REGIAO":"Sudeste","MESOREGIAO":"10466,2972226664","MICROREGIA":"UBERABA","LATITUDE":-19.977,"LONGITUDE":-47.771,"SEDE":"Y","area":1.0466,"x":-48,"y":0,"x1":-4.781,"y1":-1.993}},{"type":"Polygon","arcs":[[-102,104,105,106,107,-98,-83]],"properties":{"GEOCODIGO":3124807,"NOME":"Estrela do Sul","UF":"MG","ID_UF":31,"REGIAO":"Sudeste","MESOREGIAO":"82207,0322032063","MICROREGIA":"PATROCINIO","LATITUDE":-18.746,"LONGITUDE":-47.693,"SEDE":"Y","area":8.2207,"x":-48,"y":0,"x1":-4.772,"y1":-1.871}},{"type":"Polygon","arcs":[[-99,-108,108,109,110,111,112,-91]],"properties":{"GEOCODIGO":3145000,"NOME":"Nova Ponte","UF":"MG","ID_UF":31,"REGIAO":"Sudeste","MESOREGIAO":"110804,943392214","MICROREGIA":"ARAXA","LATITUDE":-19.136,"LONGITUDE":-47.683,"SEDE":"Y","area":1.108,"x":-48,"y":0,"x1":-4.77,"y1":-1.926}},{"type":"Polygon","arcs":[[113,114,115,-105,-101]],"properties":{"GEOCODIGO":3127909,"NOME":"Grupiara","UF":"MG","ID_UF":31,"REGIAO":"Sudeste","MESOREGIAO":"19239,2178387704","MICROREGIA":"PATROCINIO","LATITUDE":-18.494,"LONGITUDE":-47.722,"SEDE":"Y","area":1.9239,"x":-48,"y":0,"x1":-4.776,"y1":-1.848}},{"type":"Polygon","arcs":[[-93,116,117,-103]],"properties":{"GEOCODIGO":3118205,"NOME":"Conquista","UF":"MG","ID_UF":31,"REGIAO":"Sudeste","MESOREGIAO":"61744,8377968913","MICROREGIA":"UBERABA","LATITUDE":-19.937,"LONGITUDE":-47.542,"SEDE":"Y","area":6.1744,"x":-48,"y":0,"x1":-4.762,"y1":-1.988}},{"type":"Polygon","arcs":[[118,119,120,-115]],"properties":{"GEOCODIGO":3123502,"NOME":"Douradoquara","UF":"MG","ID_UF":31,"REGIAO":"Sudeste","MESOREGIAO":"31244,9566463982","MICROREGIA":"PATROCINIO","LATITUDE":-18.431,"LONGITUDE":-47.609,"SEDE":"Y","area":3.1244,"x":-48,"y":0,"x1":-4.76,"y1":-1.843}},{"type":"Polygon","arcs":[[-121,121,122,123,124,125,-106,-116]],"properties":{"GEOCODIGO":3143104,"NOME":"Monte Carmelo","UF":"MG","ID_UF":31,"REGIAO":"Sudeste","MESOREGIAO":"135584,542006359","MICROREGIA":"PATROCINIO","LATITUDE":-18.725,"LONGITUDE":-47.499,"SEDE":"Y","area":1.3558,"x":-47,"y":0,"x1":-4.746,"y1":-1.87}},{"type":"Polygon","arcs":[[-107,-126,126,-109]],"properties":{"GEOCODIGO":3156403,"NOME":"Romaria","UF":"MG","ID_UF":31,"REGIAO":"Sudeste","MESOREGIAO":"40214,3483765724","MICROREGIA":"PATROCINIO","LATITUDE":-18.883,"LONGITUDE":-47.586,"SEDE":"Y","area":4.0214,"x":-48,"y":0,"x1":-4.756,"y1":-1.89}},{"type":"Polygon","arcs":[[127,128,129,-112]],"properties":{"GEOCODIGO":3157708,"NOME":"Santa Juliana","UF":"MG","ID_UF":31,"REGIAO":"Sudeste","MESOREGIAO":"72797,4263139917","MICROREGIA":"ARAXA","LATITUDE":-19.309,"LONGITUDE":-47.525,"SEDE":"Y","area":7.2797,"x":-48,"y":0,"x1":-4.75,"y1":-1.938}},{"type":"Polygon","arcs":[[130,131,-122,-120]],"properties":{"GEOCODIGO":3100104,"NOME":"Abadia dos Dourados","UF":"MG","ID_UF":31,"REGIAO":"Sudeste","MESOREGIAO":"89532,4967922991","MICROREGIA":"PATROCINIO","LATITUDE":-18.486,"LONGITUDE":-47.403,"SEDE":"Y","area":8.9532,"x":-47,"y":0,"x1":-4.745,"y1":-1.835}},{"type":"Polygon","arcs":[[132,133,-128,-111]],"properties":{"GEOCODIGO":3149200,"NOME":"Pedrinopolis","UF":"MG","ID_UF":31,"REGIAO":"Sudeste","MESOREGIAO":"35857,2974713234","MICROREGIA":"ARAXA","LATITUDE":-19.228,"LONGITUDE":-47.462,"SEDE":"Y","area":3.5857,"x":-48,"y":0,"x1":-4.751,"y1":-1.919}},{"type":"Polygon","arcs":[[-130,134,135,136,137,138,139,140,-117,-92,-113]],"properties":{"GEOCODIGO":3156908,"NOME":"Sacramento","UF":"MG","ID_UF":31,"REGIAO":"Sudeste","MESOREGIAO":"307322,900731227","MICROREGIA":"ARAXA","LATITUDE":-19.865,"LONGITUDE":-47.44,"SEDE":"Y","area":3.0732,"x":-47,"y":0,"x1":-4.726,"y1":-1.99}},{"type":"Polygon","arcs":[[-127,-125,141,142,-133,-110]],"properties":{"GEOCODIGO":3131604,"NOME":"Irai de Minas","UF":"MG","ID_UF":31,"REGIAO":"Sudeste","MESOREGIAO":"35842,0010129708","MICROREGIA":"PATROCINIO","LATITUDE":-18.984,"LONGITUDE":-47.461,"SEDE":"Y","area":3.5842,"x":-47,"y":0,"x1":-4.745,"y1":-1.904}},{"type":"Polygon","arcs":[[-129,-134,-143,143,144,145,146,-135]],"properties":{"GEOCODIGO":3149804,"NOME":"Perdizes","UF":"MG","ID_UF":31,"REGIAO":"Sudeste","MESOREGIAO":"245067,948110186","MICROREGIA":"ARAXA","LATITUDE":-19.353,"LONGITUDE":-47.293,"SEDE":"Y","area":2.4506,"x":-47,"y":0,"x1":-4.719,"y1":-1.939}},{"type":"Polygon","arcs":[[147,148,149,150,151,152]],"properties":{"GEOCODIGO":3147006,"NOME":"Paracatu","UF":"MG","ID_UF":31,"REGIAO":"Sudeste","MESOREGIAO":"823539,626719111","MICROREGIA":"PARACATU","LATITUDE":-17.222,"LONGITUDE":-46.875,"SEDE":"Y","area":8.2353,"x":-47,"y":0,"x1":-4.688,"y1":-1.717}},{"type":"Polygon","arcs":[[153,154,155,156,157,158,-123,-132,159]],"properties":{"GEOCODIGO":3119302,"NOME":"Coromandel","UF":"MG","ID_UF":31,"REGIAO":"Sudeste","MESOREGIAO":"329777,525730217","MICROREGIA":"PATROCINIO","LATITUDE":-18.473,"LONGITUDE":-47.2,"SEDE":"Y","area":3.2977,"x":-47,"y":0,"x1":-4.713,"y1":-1.841}},{"type":"Polygon","arcs":[[-124,-159,160,161,162,-144,-142]],"properties":{"GEOCODIGO":3148103,"NOME":"Patrocinio","UF":"MG","ID_UF":31,"REGIAO":"Sudeste","MESOREGIAO":"286847,417718753","MICROREGIA":"PATROCINIO","LATITUDE":-18.944,"LONGITUDE":-46.993,"SEDE":"Y","area":2.8684,"x":-47,"y":0,"x1":-4.705,"y1":-1.897}},{"type":"Polygon","arcs":[[163,164,165,166,167,168,169,170,171,172,-148,173]],"properties":{"GEOCODIGO":3170404,"NOME":"Unai","UF":"MG","ID_UF":31,"REGIAO":"Sudeste","MESOREGIAO":"846827,239029086","MICROREGIA":"UNAI","LATITUDE":-16.358,"LONGITUDE":-46.906,"SEDE":"Y","area":8.4682,"x":-47,"y":0,"x1":-4.681,"y1":-1.637}},{"type":"Polygon","arcs":[[174,175]],"properties":{"GEOCODIGO":3116407,"NOME":"Claraval","UF":"MG","ID_UF":31,"REGIAO":"Sudeste","MESOREGIAO":"21030,376993369","MICROREGIA":"PASSOS","LATITUDE":-20.399,"LONGITUDE":-47.267,"SEDE":"Y","area":2.103,"x":-47,"y":0,"x1":-4.724,"y1":-2.036}},{"type":"Polygon","arcs":[[-152,176,-154,177]],"properties":{"GEOCODIGO":3128600,"NOME":"Guarda-Mor","UF":"MG","ID_UF":31,"REGIAO":"Sudeste","MESOREGIAO":"206727,33877672","MICROREGIA":"PARACATU","LATITUDE":-17.771,"LONGITUDE":-47.098,"SEDE":"Y","area":2.0672,"x":-47,"y":0,"x1":-4.712,"y1":-1.773}},{"type":"Polygon","arcs":[[-175,178,-140,179,180,181,182]],"properties":{"GEOCODIGO":3129707,"NOME":"Ibiraci","UF":"MG","ID_UF":31,"REGIAO":"Sudeste","MESOREGIAO":"59866,7633814315","MICROREGIA":"PASSOS","LATITUDE":-20.462,"LONGITUDE":-47.122,"SEDE":"Y","area":5.9866,"x":-47,"y":0,"x1":-4.71,"y1":-2.039}},{"type":"Polygon","arcs":[[183,184,185,186,187,188,189,190]],"properties":{"GEOCODIGO":3164704,"NOME":"Sao Sebastiao do Paraiso","UF":"MG","ID_UF":31,"REGIAO":"Sudeste","MESOREGIAO":"82243,7605284031","MICROREGIA":"SAO SEBASTIAO DO PARAISO","LATITUDE":-20.917,"LONGITUDE":-46.991,"SEDE":"Y","area":8.2243,"x":-47,"y":0,"x1":-4.7,"y1":-2.092}},{"type":"Polygon","arcs":[[191,192,-184]],"properties":{"GEOCODIGO":3165107,"NOME":"Sao Tomas de Aquino","UF":"MG","ID_UF":31,"REGIAO":"Sudeste","MESOREGIAO":"27714,5416077577","MICROREGIA":"SAO SEBASTIAO DO PARAISO","LATITUDE":-20.784,"LONGITUDE":-47.098,"SEDE":"Y","area":2.7714,"x":-47,"y":0,"x1":-4.712,"y1":-2.078}},{"type":"Polygon","arcs":[[-147,193,194,-136]],"properties":{"GEOCODIGO":3104007,"NOME":"Araxa","UF":"MG","ID_UF":31,"REGIAO":"Sudeste","MESOREGIAO":"116469,337304364","MICROREGIA":"ARAXA","LATITUDE":-19.593,"LONGITUDE":-46.941,"SEDE":"Y","area":1.1646,"x":-47,"y":0,"x1":-4.697,"y1":-1.963}},{"type":"Polygon","arcs":[[-164,195]],"properties":{"GEOCODIGO":3109451,"NOME":"Cabeceira Grande","UF":"MG","ID_UF":31,"REGIAO":"Sudeste","MESOREGIAO":"102829,910442162","MICROREGIA":"UNAI","LATITUDE":-16.03,"LONGITUDE":-47.091,"SEDE":"Y","area":1.0282,"x":-47,"y":0,"x1":-4.712,"y1":-1.607}},{"type":"Polygon","arcs":[[-190,196,197]],"properties":{"GEOCODIGO":3132909,"NOME":"Itamogi","UF":"MG","ID_UF":31,"REGIAO":"Sudeste","MESOREGIAO":"23664,8107669064","MICROREGIA":"SAO SEBASTIAO DO PARAISO","LATITUDE":-21.078,"LONGITUDE":-47.048,"SEDE":"Y","area":2.3664,"x":-47,"y":0,"x1":-4.705,"y1":-2.107}},{"type":"Polygon","arcs":[[-195,198,199,200,-137]],"properties":{"GEOCODIGO":3168101,"NOME":"Tapira","UF":"MG","ID_UF":31,"REGIAO":"Sudeste","MESOREGIAO":"118091,725664684","MICROREGIA":"ARAXA","LATITUDE":-19.922,"LONGITUDE":-46.823,"SEDE":"Y","area":1.1809,"x":-47,"y":0,"x1":-4.686,"y1":-1.991}},{"type":"Polygon","arcs":[[-197,-189,201,202,203,204]],"properties":{"GEOCODIGO":3143203,"NOME":"Monte Santo de Minas","UF":"MG","ID_UF":31,"REGIAO":"Sudeste","MESOREGIAO":"59076,4697055765","MICROREGIA":"SAO SEBASTIAO DO PARAISO","LATITUDE":-21.19,"LONGITUDE":-46.98,"SEDE":"Y","area":5.9076,"x":-47,"y":0,"x1":-4.694,"y1":-2.118}},{"type":"Polygon","arcs":[[-182,205,206,-185,-193,207]],"properties":{"GEOCODIGO":3112406,"NOME":"Capetinga","UF":"MG","ID_UF":31,"REGIAO":"Sudeste","MESOREGIAO":"29765,999772806","MICROREGIA":"PASSOS","LATITUDE":-20.616,"LONGITUDE":-47.054,"SEDE":"Y","area":2.9766,"x":-47,"y":0,"x1":-4.703,"y1":-2.065}},{"type":"Polygon","arcs":[[208,209,210,211,-180,-139]],"properties":{"GEOCODIGO":3121209,"NOME":"Delfinopolis","UF":"MG","ID_UF":31,"REGIAO":"Sudeste","MESOREGIAO":"137727,600317219","MICROREGIA":"PASSOS","LATITUDE":-20.344,"LONGITUDE":-46.854,"SEDE":"Y","area":1.3772,"x":-47,"y":0,"x1":-4.677,"y1":-2.035}},{"type":"Polygon","arcs":[[-181,-212,212,213,214,-206]],"properties":{"GEOCODIGO":3115102,"NOME":"Cassia","UF":"MG","ID_UF":31,"REGIAO":"Sudeste","MESOREGIAO":"64476,4627115307","MICROREGIA":"PASSOS","LATITUDE":-20.583,"LONGITUDE":-46.922,"SEDE":"Y","area":6.4476,"x":-47,"y":0,"x1":-4.692,"y1":-2.054}},{"type":"Polygon","arcs":[[-177,-151,215,216,-155]],"properties":{"GEOCODIGO":3171006,"NOME":"Vazante","UF":"MG","ID_UF":31,"REGIAO":"Sudeste","MESOREGIAO":"190156,089139071","MICROREGIA":"PARACATU","LATITUDE":-17.987,"LONGITUDE":-46.908,"SEDE":"Y","area":1.9015,"x":-47,"y":0,"x1":-4.686,"y1":-1.786}},{"type":"Polygon","arcs":[[-204,217,218]],"properties":{"GEOCODIGO":3104106,"NOME":"Arceburgo","UF":"MG","ID_UF":31,"REGIAO":"Sudeste","MESOREGIAO":"16209,4947029481","MICROREGIA":"SAO SEBASTIAO DO PARAISO","LATITUDE":-21.364,"LONGITUDE":-46.94,"SEDE":"Y","area":1.6209,"x":-47,"y":0,"x1":-4.694,"y1":-2.135}},{"type":"Polygon","arcs":[[-207,-215,219,220,-186]],"properties":{"GEOCODIGO":3152907,"NOME":"Pratapolis","UF":"MG","ID_UF":31,"REGIAO":"Sudeste","MESOREGIAO":"21506,5161999679","MICROREGIA":"PASSOS","LATITUDE":-20.745,"LONGITUDE":-46.861,"SEDE":"Y","area":2.1506,"x":-47,"y":0,"x1":-4.686,"y1":-2.078}},{"type":"Polygon","arcs":[[-203,221,222,223,224,-218]],"properties":{"GEOCODIGO":3128303,"NOME":"Guaranesia","UF":"MG","ID_UF":31,"REGIAO":"Sudeste","MESOREGIAO":"29350,0983940749","MICROREGIA":"SAO SEBASTIAO DO PARAISO","LATITUDE":-21.299,"LONGITUDE":-46.803,"SEDE":"Y","area":2.935,"x":-47,"y":0,"x1":-4.68,"y1":-2.127}},{"type":"Polygon","arcs":[[225,226,227,228,-222,-202,-188]],"properties":{"GEOCODIGO":3134806,"NOME":"Jacui","UF":"MG","ID_UF":31,"REGIAO":"Sudeste","MESOREGIAO":"41045,0836099731","MICROREGIA":"SAO SEBASTIAO DO PARAISO","LATITUDE":-21.017,"LONGITUDE":-46.741,"SEDE":"Y","area":4.1045,"x":-47,"y":0,"x1":-4.673,"y1":-2.102}},{"type":"Polygon","arcs":[[-201,229,230,231,232,233,-209,-138]],"properties":{"GEOCODIGO":3164308,"NOME":"Sao Roque de Minas","UF":"MG","ID_UF":31,"REGIAO":"Sudeste","MESOREGIAO":"210036,837543888","MICROREGIA":"PIUI","LATITUDE":-20.245,"LONGITUDE":-46.366,"SEDE":"Y","area":2.1003,"x":-47,"y":0,"x1":-4.651,"y1":-2.018}},{"type":"Polygon","arcs":[[234,235,236,237,238,239,240,241,242,243,-157]],"properties":{"GEOCODIGO":3148004,"NOME":"Patos de Minas","UF":"MG","ID_UF":31,"REGIAO":"Sudeste","MESOREGIAO":"318723,443015901","MICROREGIA":"PATOS DE MINAS","LATITUDE":-18.579,"LONGITUDE":-46.518,"SEDE":"Y","area":3.1872,"x":-47,"y":0,"x1":-4.65,"y1":-1.859}},{"type":"Polygon","arcs":[[-163,244,-242,245,246,247,-145]],"properties":{"GEOCODIGO":3166808,"NOME":"Serra do Salitre","UF":"MG","ID_UF":31,"REGIAO":"Sudeste","MESOREGIAO":"129846,814667697","MICROREGIA":"PATROCINIO","LATITUDE":-19.111,"LONGITUDE":-46.69,"SEDE":"Y","area":1.2984,"x":-47,"y":0,"x1":-4.665,"y1":-1.915}},{"type":"Polygon","arcs":[[-221,248,249,-226,-187]],"properties":{"GEOCODIGO":3126307,"NOME":"Fortaleza de Minas","UF":"MG","ID_UF":31,"REGIAO":"Sudeste","MESOREGIAO":"21888,3498619225","MICROREGIA":"PASSOS","LATITUDE":-20.849,"LONGITUDE":-46.718,"SEDE":"Y","area":2.1888,"x":-47,"y":0,"x1":-4.677,"y1":-2.088}},{"type":"Polygon","arcs":[[-211,250,251,252,-227,-250,253,-213]],"properties":{"GEOCODIGO":3147907,"NOME":"Passos","UF":"MG","ID_UF":31,"REGIAO":"Sudeste","MESOREGIAO":"133643,042283819","MICROREGIA":"PASSOS","LATITUDE":-20.719,"LONGITUDE":-46.61,"SEDE":"Y","area":1.3364,"x":-47,"y":0,"x1":-4.662,"y1":-2.071}},{"type":"Polygon","arcs":[[-254,-249,-220,-214]],"properties":{"GEOCODIGO":3133758,"NOME":"Itau de Minas","UF":"MG","ID_UF":31,"REGIAO":"Sudeste","MESOREGIAO":"15383,0172517139","MICROREGIA":"PASSOS","LATITUDE":-20.739,"LONGITUDE":-46.752,"SEDE":"Y","area":1.5383,"x":-47,"y":0,"x1":-4.677,"y1":-2.073}},{"type":"Polygon","arcs":[[-217,254,255,-235,-156]],"properties":{"GEOCODIGO":3137106,"NOME":"Lagamar","UF":"MG","ID_UF":31,"REGIAO":"Sudeste","MESOREGIAO":"147407,917077409","MICROREGIA":"PARACATU","LATITUDE":-18.178,"LONGITUDE":-46.808,"SEDE":"Y","area":1.474,"x":-47,"y":0,"x1":-4.673,"y1":-1.81}},{"type":"Polygon","arcs":[[-146,-248,256,257,258,259,-199,-194]],"properties":{"GEOCODIGO":3129509,"NOME":"Ibia","UF":"MG","ID_UF":31,"REGIAO":"Sudeste","MESOREGIAO":"270740,703512501","MICROREGIA":"ARAXA","LATITUDE":-19.478,"LONGITUDE":-46.539,"SEDE":"Y","area":2.7074,"x":-47,"y":0,"x1":-4.659,"y1":-1.955}},{"type":"Polygon","arcs":[[-229,260,261,262,263,-223]],"properties":{"GEOCODIGO":3163904,"NOME":"Sao Pedro da Uniao","UF":"MG","ID_UF":31,"REGIAO":"Sudeste","MESOREGIAO":"25873,6313258189","MICROREGIA":"SAO SEBASTIAO DO PARAISO","LATITUDE":-21.127,"LONGITUDE":-46.615,"SEDE":"Y","area":2.5873,"x":-47,"y":0,"x1":-4.664,"y1":-2.112}},{"type":"Polygon","arcs":[[264,265,266,267,268]],"properties":{"GEOCODIGO":3134905,"NOME":"Jacutinga","UF":"MG","ID_UF":31,"REGIAO":"Sudeste","MESOREGIAO":"34755,2228929905","MICROREGIA":"POCOS DE CALDAS","LATITUDE":-22.286,"LONGITUDE":-46.612,"SEDE":"Y","area":3.4755,"x":-47,"y":0,"x1":-4.66,"y1":-2.228}},{"type":"Polygon","arcs":[[-264,269,270,271,-224]],"properties":{"GEOCODIGO":3128709,"NOME":"Guaxupe","UF":"MG","ID_UF":31,"REGIAO":"Sudeste","MESOREGIAO":"28460,002643336","MICROREGIA":"SAO SEBASTIAO DO PARAISO","LATITUDE":-21.305,"LONGITUDE":-46.713,"SEDE":"Y","area":2.846,"x":-47,"y":0,"x1":-4.668,"y1":-2.129}},{"type":"Polygon","arcs":[[272,273,274,275,276,-266,277,278]],"properties":{"GEOCODIGO":3102605,"NOME":"Andradas","UF":"MG","ID_UF":31,"REGIAO":"Sudeste","MESOREGIAO":"46742,0406091599","MICROREGIA":"POCOS DE CALDAS","LATITUDE":-22.068,"LONGITUDE":-46.569,"SEDE":"Y","area":4.6742,"x":-47,"y":0,"x1":-4.655,"y1":-2.207}},{"type":"Polygon","arcs":[[-158,-244,279,-161]],"properties":{"GEOCODIGO":3128907,"NOME":"Guimarania","UF":"MG","ID_UF":31,"REGIAO":"Sudeste","MESOREGIAO":"36860,4196932227","MICROREGIA":"PATOS DE MINAS","LATITUDE":-18.844,"LONGITUDE":-46.793,"SEDE":"Y","area":3.686,"x":-47,"y":0,"x1":-4.675,"y1":-1.881}},{"type":"Polygon","arcs":[[280,-278,-265]],"properties":{"GEOCODIGO":3101409,"NOME":"Albertina","UF":"MG","ID_UF":31,"REGIAO":"Sudeste","MESOREGIAO":"5738,3111673375","MICROREGIA":"POCOS DE CALDAS","LATITUDE":-22.201,"LONGITUDE":-46.616,"SEDE":"Y","area":5.7383,"x":-47,"y":0,"x1":-4.661,"y1":-2.219}},{"type":"Polygon","arcs":[[-268,281,282,283]],"properties":{"GEOCODIGO":3143401,"NOME":"Monte Siao","UF":"MG","ID_UF":31,"REGIAO":"Sudeste","MESOREGIAO":"28916,1893187201","MICROREGIA":"POCOS DE CALDAS","LATITUDE":-22.433,"LONGITUDE":-46.573,"SEDE":"Y","area":2.8916,"x":-47,"y":0,"x1":-4.651,"y1":-2.242}},{"type":"Polygon","arcs":[[284,285,286,-273,287]],"properties":{"GEOCODIGO":3151800,"NOME":"Pocos de Caldas","UF":"MG","ID_UF":31,"REGIAO":"Sudeste","MESOREGIAO":"54352,8415731608","MICROREGIA":"POCOS DE CALDAS","LATITUDE":-21.788,"LONGITUDE":-46.561,"SEDE":"Y","area":5.4352,"x":-47,"y":0,"x1":-4.656,"y1":-2.18}},{"type":"Polygon","arcs":[[288,289,-166,290]],"properties":{"GEOCODIGO":3109303,"NOME":"Buritis","UF":"MG","ID_UF":31,"REGIAO":"Sudeste","MESOREGIAO":"522078,792612458","MICROREGIA":"UNAI","LATITUDE":-15.618,"LONGITUDE":-46.423,"SEDE":"Y","area":5.2207,"x":-47,"y":0,"x1":-4.66,"y1":-1.545}},{"type":"Polygon","arcs":[[-280,-243,-245,-162]],"properties":{"GEOCODIGO":3120706,"NOME":"Cruzeiro da Fortaleza","UF":"MG","ID_UF":31,"REGIAO":"Sudeste","MESOREGIAO":"18568,6863599892","MICROREGIA":"PATROCINIO","LATITUDE":-18.946,"LONGITUDE":-46.674,"SEDE":"Y","area":1.8568,"x":-47,"y":0,"x1":-4.667,"y1":-1.897}},{"type":"Polygon","arcs":[[-271,291,292,293,294]],"properties":{"GEOCODIGO":3144102,"NOME":"Muzambinho","UF":"MG","ID_UF":31,"REGIAO":"Sudeste","MESOREGIAO":"40986,9786235663","MICROREGIA":"SAO SEBASTIAO DO PARAISO","LATITUDE":-21.376,"LONGITUDE":-46.526,"SEDE":"Y","area":4.0986,"x":-47,"y":0,"x1":-4.651,"y1":-2.135}},{"type":"Polygon","arcs":[[-253,295,296,-261,-228]],"properties":{"GEOCODIGO":3107604,"NOME":"Bom Jesus da Penha","UF":"MG","ID_UF":31,"REGIAO":"Sudeste","MESOREGIAO":"20873,9220778967","MICROREGIA":"PASSOS","LATITUDE":-21.017,"LONGITUDE":-46.523,"SEDE":"Y","area":2.0873,"x":-47,"y":0,"x1":-4.652,"y1":-2.101}},{"type":"Polygon","arcs":[[-256,297,298,299,300,-236]],"properties":{"GEOCODIGO":3153400,"NOME":"Presidente Olegario","UF":"MG","ID_UF":31,"REGIAO":"Sudeste","MESOREGIAO":"353147,737396075","MICROREGIA":"PARACATU","LATITUDE":-18.418,"LONGITUDE":-46.418,"SEDE":"Y","area":3.5314,"x":-46,"y":0,"x1":-4.633,"y1":-1.823}},{"type":"Polygon","arcs":[[-263,301,302,-292,-270]],"properties":{"GEOCODIGO":3136900,"NOME":"Juruaia","UF":"MG","ID_UF":31,"REGIAO":"Sudeste","MESOREGIAO":"21922,0040446831","MICROREGIA":"SAO SEBASTIAO DO PARAISO","LATITUDE":-21.253,"LONGITUDE":-46.577,"SEDE":"Y","area":2.1922,"x":-47,"y":0,"x1":-4.652,"y1":-2.122}},{"type":"Polygon","arcs":[[-287,303,304,305,306,-274]],"properties":{"GEOCODIGO":3110301,"NOME":"Caldas","UF":"MG","ID_UF":31,"REGIAO":"Sudeste","MESOREGIAO":"71318,0662882486","MICROREGIA":"POCOS DE CALDAS","LATITUDE":-21.924,"LONGITUDE":-46.386,"SEDE":"Y","area":7.1318,"x":-46,"y":0,"x1":-4.636,"y1":-2.189}},{"type":"Polygon","arcs":[[-277,307,308,309,310,311,-282,-267]],"properties":{"GEOCODIGO":3146008,"NOME":"Ouro Fino","UF":"MG","ID_UF":31,"REGIAO":"Sudeste","MESOREGIAO":"53484,0711950352","MICROREGIA":"POCOS DE CALDAS","LATITUDE":-22.283,"LONGITUDE":-46.369,"SEDE":"Y","area":5.3484,"x":-46,"y":0,"x1":-4.638,"y1":-2.225}},{"type":"Polygon","arcs":[[312,313,314,315,316,-285]],"properties":{"GEOCODIGO":3108404,"NOME":"Botelhos","UF":"MG","ID_UF":31,"REGIAO":"Sudeste","MESOREGIAO":"33426,3682429681","MICROREGIA":"POCOS DE CALDAS","LATITUDE":-21.633,"LONGITUDE":-46.395,"SEDE":"Y","area":3.3426,"x":-46,"y":0,"x1":-4.641,"y1":-2.163}},{"type":"Polygon","arcs":[[-260,317,318,319,-230,-200]],"properties":{"GEOCODIGO":3141306,"NOME":"Medeiros","UF":"MG","ID_UF":31,"REGIAO":"Sudeste","MESOREGIAO":"93992,2907650931","MICROREGIA":"PIUI","LATITUDE":-19.996,"LONGITUDE":-46.226,"SEDE":"Y","area":9.3992,"x":-46,"y":0,"x1":-4.633,"y1":-1.998}},{"type":"Polygon","arcs":[[-210,-234,320,321,322,323,-251]],"properties":{"GEOCODIGO":3162203,"NOME":"Sao Joao Batista do Gloria","UF":"MG","ID_UF":31,"REGIAO":"Sudeste","MESOREGIAO":"55434,7576986907","MICROREGIA":"PASSOS","LATITUDE":-20.641,"LONGITUDE":-46.506,"SEDE":"Y","area":5.5434,"x":-46,"y":0,"x1":-4.643,"y1":-2.057}},{"type":"Polygon","arcs":[[324,325,326,327]],"properties":{"GEOCODIGO":3169109,"NOME":"Toledo","UF":"MG","ID_UF":31,"REGIAO":"Sudeste","MESOREGIAO":"13587,2395873359","MICROREGIA":"POUSO ALEGRE","LATITUDE":-22.743,"LONGITUDE":-46.372,"SEDE":"Y","area":1.3587,"x":-46,"y":0,"x1":-4.638,"y1":-2.27}},{"type":"Polygon","arcs":[[-262,-297,328,329,330,331,332,-302]],"properties":{"GEOCODIGO":3145109,"NOME":"Nova Resende","UF":"MG","ID_UF":31,"REGIAO":"Sudeste","MESOREGIAO":"38984,8142078079","MICROREGIA":"SAO SEBASTIAO DO PARAISO","LATITUDE":-21.126,"LONGITUDE":-46.42,"SEDE":"Y","area":3.8984,"x":-46,"y":0,"x1":-4.641,"y1":-2.109}},{"type":"Polygon","arcs":[[-294,333,334,335,-314,336]],"properties":{"GEOCODIGO":3109501,"NOME":"Cabo Verde","UF":"MG","ID_UF":31,"REGIAO":"Sudeste","MESOREGIAO":"36706,1511215249","MICROREGIA":"SAO SEBASTIAO DO PARAISO","LATITUDE":-21.472,"LONGITUDE":-46.396,"SEDE":"Y","area":3.6706,"x":-46,"y":0,"x1":-4.639,"y1":-2.148}},{"type":"Polygon","arcs":[[-312,337,338,339,340,341,-283]],"properties":{"GEOCODIGO":3109105,"NOME":"Bueno Brandao","UF":"MG","ID_UF":31,"REGIAO":"Sudeste","MESOREGIAO":"35594,7056210093","MICROREGIA":"POUSO ALEGRE","LATITUDE":-22.441,"LONGITUDE":-46.351,"SEDE":"Y","area":3.5594,"x":-46,"y":0,"x1":-4.635,"y1":-2.248}},{"type":"Polygon","arcs":[[-216,-150,342,-298,-255]],"properties":{"GEOCODIGO":3137536,"NOME":"Lagoa Grande","UF":"MG","ID_UF":31,"REGIAO":"Sudeste","MESOREGIAO":"121851,375276574","MICROREGIA":"PARACATU","LATITUDE":-17.835,"LONGITUDE":-46.514,"SEDE":"Y","area":1.2185,"x":-47,"y":0,"x1":-4.65,"y1":-1.776}},{"type":"Polygon","arcs":[[-252,-324,343,344,-329,-296]],"properties":{"GEOCODIGO":3101904,"NOME":"Alpinopolis","UF":"MG","ID_UF":31,"REGIAO":"Sudeste","MESOREGIAO":"45689,555563586","MICROREGIA":"PASSOS","LATITUDE":-20.864,"LONGITUDE":-46.388,"SEDE":"Y","area":4.5689,"x":-46,"y":0,"x1":-4.637,"y1":-2.086}},{"type":"Polygon","arcs":[[345,346,-318,-259]],"properties":{"GEOCODIGO":3153004,"NOME":"Pratinha","UF":"MG","ID_UF":31,"REGIAO":"Sudeste","MESOREGIAO":"61956,9808784743","MICROREGIA":"ARAXA","LATITUDE":-19.751,"LONGITUDE":-46.378,"SEDE":"Y","area":6.1956,"x":-46,"y":0,"x1":-4.64,"y1":-1.976}},{"type":"Polygon","arcs":[[-307,347,-275]],"properties":{"GEOCODIGO":3129905,"NOME":"Ibitiura de Minas","UF":"MG","ID_UF":31,"REGIAO":"Sudeste","MESOREGIAO":"6827,28910459082","MICROREGIA":"POCOS DE CALDAS","LATITUDE":-22.061,"LONGITUDE":-46.44,"SEDE":"Y","area":6.8272,"x":-46,"y":0,"x1":-4.64,"y1":-2.206}},{"type":"Polygon","arcs":[[-341,348,349,-325,350]],"properties":{"GEOCODIGO":3143807,"NOME":"Munhoz","UF":"MG","ID_UF":31,"REGIAO":"Sudeste","MESOREGIAO":"18988,7574846166","MICROREGIA":"POUSO ALEGRE","LATITUDE":-22.613,"LONGITUDE":-46.361,"SEDE":"Y","area":1.8988,"x":-46,"y":0,"x1":-4.63,"y1":-2.263}},{"type":"Polygon","arcs":[[-348,-306,351,352,-308,-276]],"properties":{"GEOCODIGO":3159209,"NOME":"Santa Rita de Caldas","UF":"MG","ID_UF":31,"REGIAO":"Sudeste","MESOREGIAO":"50242,0681305538","MICROREGIA":"POCOS DE CALDAS","LATITUDE":-22.029,"LONGITUDE":-46.337,"SEDE":"Y","area":5.0242,"x":-46,"y":0,"x1":-4.627,"y1":-2.202}},{"type":"Polygon","arcs":[[-327,353,354,355]],"properties":{"GEOCODIGO":3125101,"NOME":"Extrema","UF":"MG","ID_UF":31,"REGIAO":"Sudeste","MESOREGIAO":"24283,9469810138","MICROREGIA":"POUSO ALEGRE","LATITUDE":-22.855,"LONGITUDE":-46.318,"SEDE":"Y","area":2.4283,"x":-46,"y":0,"x1":-4.628,"y1":-2.282}},{"type":"Polygon","arcs":[[356,-304,-286,-317]],"properties":{"GEOCODIGO":3105301,"NOME":"Bandeira do Sul","UF":"MG","ID_UF":31,"REGIAO":"Sudeste","MESOREGIAO":"4638,82222886948","MICROREGIA":"POCOS DE CALDAS","LATITUDE":-21.728,"LONGITUDE":-46.386,"SEDE":"Y","area":4.6388,"x":-46,"y":0,"x1":-4.638,"y1":-2.172}},{"type":"Polygon","arcs":[[-293,-303,-333,357,358,-334]],"properties":{"GEOCODIGO":3143005,"NOME":"Monte Belo","UF":"MG","ID_UF":31,"REGIAO":"Sudeste","MESOREGIAO":"42185,6262317267","MICROREGIA":"SAO SEBASTIAO DO PARAISO","LATITUDE":-21.326,"LONGITUDE":-46.368,"SEDE":"Y","area":4.2185,"x":-46,"y":0,"x1":-4.632,"y1":-2.131}},{"type":"Polygon","arcs":[[359,360,361,362,363,-257,-247]],"properties":{"GEOCODIGO":3155504,"NOME":"Rio Paranaiba","UF":"MG","ID_UF":31,"REGIAO":"Sudeste","MESOREGIAO":"135167,740625367","MICROREGIA":"PATOS DE MINAS","LATITUDE":-19.194,"LONGITUDE":-46.247,"SEDE":"Y","area":1.3516,"x":-46,"y":0,"x1":-4.629,"y1":-1.924}},{"type":"Polygon","arcs":[[-233,364,365,-321]],"properties":{"GEOCODIGO":3170602,"NOME":"Vargem Bonita","UF":"MG","ID_UF":31,"REGIAO":"Sudeste","MESOREGIAO":"40798,9638460511","MICROREGIA":"PIUI","LATITUDE":-20.327,"LONGITUDE":-46.366,"SEDE":"Y","area":4.0798,"x":-46,"y":0,"x1":-4.633,"y1":-2.043}},{"type":"Polygon","arcs":[[366,-240]],"properties":{"GEOCODIGO":3137502,"NOME":"Lagoa Formosa","UF":"MG","ID_UF":31,"REGIAO":"Sudeste","MESOREGIAO":"84463,6898774978","MICROREGIA":"PATOS DE MINAS","LATITUDE":-18.779,"LONGITUDE":-46.408,"SEDE":"Y","area":8.4463,"x":-46,"y":0,"x1":-4.633,"y1":-1.876}},{"type":"Polygon","arcs":[[-357,-316,367,368,369,370,371,-352,-305]],"properties":{"GEOCODIGO":3111002,"NOME":"Campestre","UF":"MG","ID_UF":31,"REGIAO":"Sudeste","MESOREGIAO":"57619,1087537857","MICROREGIA":"POCOS DE CALDAS","LATITUDE":-21.711,"LONGITUDE":-46.246,"SEDE":"Y","area":5.7619,"x":-46,"y":0,"x1":-4.622,"y1":-2.171}},{"type":"Polygon","arcs":[[372,373,374,-338,-311]],"properties":{"GEOCODIGO":3130606,"NOME":"Inconfidentes","UF":"MG","ID_UF":31,"REGIAO":"Sudeste","MESOREGIAO":"14824,1395948979","MICROREGIA":"POCOS DE CALDAS","LATITUDE":-22.317,"LONGITUDE":-46.328,"SEDE":"Y","area":1.4824,"x":-46,"y":0,"x1":-4.628,"y1":-2.233}},{"type":"Polygon","arcs":[[-367,-239,375,376,-360,-246,-241]],"properties":{"GEOCODIGO":3114303,"NOME":"Carmo do Paranaiba","UF":"MG","ID_UF":31,"REGIAO":"Sudeste","MESOREGIAO":"130661,549594362","MICROREGIA":"PATOS DE MINAS","LATITUDE":-19.001,"LONGITUDE":-46.316,"SEDE":"Y","area":1.3066,"x":-46,"y":0,"x1":-4.618,"y1":-1.89}},{"type":"Polygon","arcs":[[-173,377,378,379,-299,-343,-149]],"properties":{"GEOCODIGO":3136306,"NOME":"Joao Pinheiro","UF":"MG","ID_UF":31,"REGIAO":"Sudeste","MESOREGIAO":"1070859,35660352","MICROREGIA":"PARACATU","LATITUDE":-17.743,"LONGITUDE":-46.173,"SEDE":"Y","area":1.0708,"x":-46,"y":0,"x1":-4.593,"y1":-1.76}},{"type":"Polygon","arcs":[[-350,380,381,382,-354,-326]],"properties":{"GEOCODIGO":3133600,"NOME":"Itapeva","UF":"MG","ID_UF":31,"REGIAO":"Sudeste","MESOREGIAO":"17896,385292561","MICROREGIA":"POUSO ALEGRE","LATITUDE":-22.768,"LONGITUDE":-46.221,"SEDE":"Y","area":1.7896,"x":-46,"y":0,"x1":-4.62,"y1":-2.269}},{"type":"Polygon","arcs":[[383,384,-170]],"properties":{"GEOCODIGO":3144375,"NOME":"Natalandia","UF":"MG","ID_UF":31,"REGIAO":"Sudeste","MESOREGIAO":"47079,3912435084","MICROREGIA":"UNAI","LATITUDE":-16.504,"LONGITUDE":-46.493,"SEDE":"Y","area":4.7079,"x":-46,"y":0,"x1":-4.647,"y1":-1.654}},{"type":"Polygon","arcs":[[385,386,387,-368,-315,-336]],"properties":{"GEOCODIGO":3122405,"NOME":"Divisa Nova","UF":"MG","ID_UF":31,"REGIAO":"Sudeste","MESOREGIAO":"21659,70512949","MICROREGIA":"ALFENAS","LATITUDE":-21.511,"LONGITUDE":-46.196,"SEDE":"Y","area":2.1659,"x":-46,"y":0,"x1":-4.624,"y1":-2.151}},{"type":"Polygon","arcs":[[388,389,-381,-349,-340]],"properties":{"GEOCODIGO":3165578,"NOME":"Senador Amaral","UF":"MG","ID_UF":31,"REGIAO":"Sudeste","MESOREGIAO":"15156,6066073287","MICROREGIA":"POUSO ALEGRE","LATITUDE":-22.587,"LONGITUDE":-46.177,"SEDE":"Y","area":1.5156,"x":-46,"y":0,"x1":-4.621,"y1":-2.255}},{"type":"Polygon","arcs":[[390,391,392,393,394,395,-373,-310]],"properties":{"GEOCODIGO":3108305,"NOME":"Borda da Mata","UF":"MG","ID_UF":31,"REGIAO":"Sudeste","MESOREGIAO":"29877,4308293589","MICROREGIA":"POUSO ALEGRE","LATITUDE":-22.274,"LONGITUDE":-46.165,"SEDE":"Y","area":2.9877,"x":-46,"y":0,"x1":-4.615,"y1":-2.225}},{"type":"Polygon","arcs":[[-339,-375,396,397,398,-389]],"properties":{"GEOCODIGO":3107901,"NOME":"Bom Repouso","UF":"MG","ID_UF":31,"REGIAO":"Sudeste","MESOREGIAO":"22960,8133201891","MICROREGIA":"POUSO ALEGRE","LATITUDE":-22.471,"LONGITUDE":-46.145,"SEDE":"Y","area":2.296,"x":-46,"y":0,"x1":-4.618,"y1":-2.244}},{"type":"Polygon","arcs":[[399,400,-331]],"properties":{"GEOCODIGO":3117108,"NOME":"Conceicao da Aparecida","UF":"MG","ID_UF":31,"REGIAO":"Sudeste","MESOREGIAO":"34902,8039307723","MICROREGIA":"ALFENAS","LATITUDE":-21.094,"LONGITUDE":-46.204,"SEDE":"Y","area":3.4902,"x":-46,"y":0,"x1":-4.622,"y1":-2.109}},{"type":"Polygon","arcs":[[-332,-401,401,402,403,-358]],"properties":{"GEOCODIGO":3102001,"NOME":"Alterosa","UF":"MG","ID_UF":31,"REGIAO":"Sudeste","MESOREGIAO":"36460,7774053939","MICROREGIA":"ALFENAS","LATITUDE":-21.249,"LONGITUDE":-46.143,"SEDE":"Y","area":3.646,"x":-46,"y":0,"x1":-4.615,"y1":-2.122}},{"type":"Polygon","arcs":[[-345,404,405,406,407,408,409,-402,-400,-330]],"properties":{"GEOCODIGO":3114402,"NOME":"Carmo do Rio Claro","UF":"MG","ID_UF":31,"REGIAO":"Sudeste","MESOREGIAO":"106347,277454331","MICROREGIA":"ALFENAS","LATITUDE":-20.972,"LONGITUDE":-46.119,"SEDE":"Y","area":1.0634,"x":-46,"y":0,"x1":-4.609,"y1":-2.097}},{"type":"Polygon","arcs":[[-323,410,411,-405,-344]],"properties":{"GEOCODIGO":3162948,"NOME":"Sao Jose da Barra","UF":"MG","ID_UF":31,"REGIAO":"Sudeste","MESOREGIAO":"31590,574102751","MICROREGIA":"PASSOS","LATITUDE":-20.718,"LONGITUDE":-46.311,"SEDE":"Y","area":3.159,"x":-46,"y":0,"x1":-4.624,"y1":-2.074}},{"type":"Polygon","arcs":[[-383,412,413,414,415,416,417,-355]],"properties":{"GEOCODIGO":3110509,"NOME":"Camanducaia","UF":"MG","ID_UF":31,"REGIAO":"Sudeste","MESOREGIAO":"52771,0909568327","MICROREGIA":"POUSO ALEGRE","LATITUDE":-22.755,"LONGITUDE":-46.145,"SEDE":"Y","area":5.2771,"x":-46,"y":0,"x1":-4.607,"y1":-2.278}},{"type":"Polygon","arcs":[[-396,418,-397,-374]],"properties":{"GEOCODIGO":3169059,"NOME":"Tocos do Moji","UF":"MG","ID_UF":31,"REGIAO":"Sudeste","MESOREGIAO":"11596,6296625288","MICROREGIA":"POUSO ALEGRE","LATITUDE":-22.371,"LONGITUDE":-46.096,"SEDE":"Y","area":1.1596,"x":-46,"y":0,"x1":-4.614,"y1":-2.235}},{"type":"Polygon","arcs":[[-366,419,420,-411,-322]],"properties":{"GEOCODIGO":3112802,"NOME":"Capitolio","UF":"MG","ID_UF":31,"REGIAO":"Sudeste","MESOREGIAO":"52193,4950517058","MICROREGIA":"PASSOS","LATITUDE":-20.615,"LONGITUDE":-46.05,"SEDE":"Y","area":5.2193,"x":-46,"y":0,"x1":-4.614,"y1":-2.061}},{"type":"Polygon","arcs":[[-372,421,422,423,424,-391,-309,-353]],"properties":{"GEOCODIGO":3131505,"NOME":"Ipuiuna","UF":"MG","ID_UF":31,"REGIAO":"Sudeste","MESOREGIAO":"29813,3331039436","MICROREGIA":"POUSO ALEGRE","LATITUDE":-22.099,"LONGITUDE":-46.19,"SEDE":"Y","area":2.9813,"x":-46,"y":0,"x1":-4.613,"y1":-2.202}},{"type":"Polygon","arcs":[[425,426,427,428,429,-384,-169]],"properties":{"GEOCODIGO":3108206,"NOME":"Bonfinopolis de Minas","UF":"MG","ID_UF":31,"REGIAO":"Sudeste","MESOREGIAO":"177891,968689736","MICROREGIA":"UNAI","LATITUDE":-16.567,"LONGITUDE":-45.99,"SEDE":"Y","area":1.7789,"x":-46,"y":0,"x1":-4.619,"y1":-1.648}},{"type":"Polygon","arcs":[[430,431,-289,432]],"properties":{"GEOCODIGO":3126208,"NOME":"Formoso","UF":"MG","ID_UF":31,"REGIAO":"Sudeste","MESOREGIAO":"368972,298162598","MICROREGIA":"UNAI","LATITUDE":-14.947,"LONGITUDE":-46.232,"SEDE":"Y","area":3.6897,"x":-46,"y":0,"x1":-4.615,"y1":-1.512}},{"type":"Polygon","arcs":[[-385,-430,433,-171]],"properties":{"GEOCODIGO":3122470,"NOME":"Dom Bosco","UF":"MG","ID_UF":31,"REGIAO":"Sudeste","MESOREGIAO":"82028,1859092338","MICROREGIA":"UNAI","LATITUDE":-16.652,"LONGITUDE":-46.271,"SEDE":"Y","area":8.2028,"x":-46,"y":0,"x1":-4.628,"y1":-1.673}},{"type":"Polygon","arcs":[[434,435,436,-319,-347]],"properties":{"GEOCODIGO":3168200,"NOME":"Tapirai","UF":"MG","ID_UF":31,"REGIAO":"Sudeste","MESOREGIAO":"41171,8133277215","MICROREGIA":"PIUI","LATITUDE":-19.888,"LONGITUDE":-46.02,"SEDE":"Y","area":4.1171,"x":-46,"y":0,"x1":-4.616,"y1":-1.987}},{"type":"Polygon","arcs":[[-232,437,438,439,440,-420,-365]],"properties":{"GEOCODIGO":3151503,"NOME":"Piumhi","UF":"MG","ID_UF":31,"REGIAO":"Sudeste","MESOREGIAO":"89967,2781871586","MICROREGIA":"PIUI","LATITUDE":-20.465,"LONGITUDE":-45.958,"SEDE":"Y","area":8.9967,"x":-46,"y":0,"x1":-4.605,"y1":-2.044}},{"type":"Polygon","arcs":[[-359,-404,441,-386,-335]],"properties":{"GEOCODIGO":3104304,"NOME":"Areado","UF":"MG","ID_UF":31,"REGIAO":"Sudeste","MESOREGIAO":"28171,6132168154","MICROREGIA":"ALFENAS","LATITUDE":-21.359,"LONGITUDE":-46.146,"SEDE":"Y","area":2.8171,"x":-46,"y":0,"x1":-4.614,"y1":-2.135}},{"type":"Polygon","arcs":[[-425,442,-392]],"properties":{"GEOCODIGO":3165800,"NOME":"Senador Jose Bento","UF":"MG","ID_UF":31,"REGIAO":"Sudeste","MESOREGIAO":"9441,9969871709","MICROREGIA":"POUSO ALEGRE","LATITUDE":-22.164,"LONGITUDE":-46.179,"SEDE":"Y","area":9.4419,"x":-46,"y":0,"x1":-4.614,"y1":-2.215}},{"type":"Polygon","arcs":[[-258,-364,443,444,445,-435,-346]],"properties":{"GEOCODIGO":3111507,"NOME":"Campos Altos","UF":"MG","ID_UF":31,"REGIAO":"Sudeste","MESOREGIAO":"71921,6163419531","MICROREGIA":"ARAXA","LATITUDE":-19.696,"LONGITUDE":-46.171,"SEDE":"Y","area":7.1921,"x":-46,"y":0,"x1":-4.619,"y1":-1.96}},{"type":"Polygon","arcs":[[-399,446,447,448,-413,-382,-390]],"properties":{"GEOCODIGO":3110608,"NOME":"Cambui","UF":"MG","ID_UF":31,"REGIAO":"Sudeste","MESOREGIAO":"24200,4913470609","MICROREGIA":"POUSO ALEGRE","LATITUDE":-22.612,"LONGITUDE":-46.058,"SEDE":"Y","area":2.42,"x":-46,"y":0,"x1":-4.607,"y1":-2.258}},{"type":"Polygon","arcs":[[449,450,-426,-168]],"properties":{"GEOCODIGO":3170479,"NOME":"Uruana de Minas","UF":"MG","ID_UF":31,"REGIAO":"Sudeste","MESOREGIAO":"58851,3889840046","MICROREGIA":"UNAI","LATITUDE":-16.064,"LONGITUDE":-46.254,"SEDE":"Y","area":5.8851,"x":-46,"y":0,"x1":-4.631,"y1":-1.609}},{"type":"Polygon","arcs":[[-290,-432,451,452,453,-450,-167]],"properties":{"GEOCODIGO":3104502,"NOME":"Arinos","UF":"MG","ID_UF":31,"REGIAO":"Sudeste","MESOREGIAO":"532020,509076189","MICROREGIA":"UNAI","LATITUDE":-15.917,"LONGITUDE":-46.106,"SEDE":"Y","area":5.3202,"x":-46,"y":0,"x1":-4.598,"y1":-1.574}},{"type":"Polygon","arcs":[[454,455,-369,-388]],"properties":{"GEOCODIGO":3166907,"NOME":"Serrania","UF":"MG","ID_UF":31,"REGIAO":"Sudeste","MESOREGIAO":"21043,4052781299","MICROREGIA":"ALFENAS","LATITUDE":-21.548,"LONGITUDE":-46.04,"SEDE":"Y","area":2.1043,"x":-46,"y":0,"x1":-4.609,"y1":-2.155}},{"type":"Polygon","arcs":[[-442,-403,-410,456,457,458,459,460,-455,-387]],"properties":{"GEOCODIGO":3101607,"NOME":"Alfenas","UF":"MG","ID_UF":31,"REGIAO":"Sudeste","MESOREGIAO":"84664,817070269","MICROREGIA":"ALFENAS","LATITUDE":-21.429,"LONGITUDE":-45.947,"SEDE":"Y","area":8.4664,"x":-46,"y":0,"x1":-4.596,"y1":-2.138}},{"type":"Polygon","arcs":[[-419,-395,461,462,463,-447,-398]],"properties":{"GEOCODIGO":3124500,"NOME":"Estiva","UF":"MG","ID_UF":31,"REGIAO":"Sudeste","MESOREGIAO":"24530,6492626612","MICROREGIA":"POUSO ALEGRE","LATITUDE":-22.463,"LONGITUDE":-46.017,"SEDE":"Y","area":2.453,"x":-46,"y":0,"x1":-4.601,"y1":-2.245}},{"type":"Polygon","arcs":[[464,465,466,467,468,-422,-371]],"properties":{"GEOCODIGO":3151701,"NOME":"Poco Fundo","UF":"MG","ID_UF":31,"REGIAO":"Sudeste","MESOREGIAO":"47472,8103442631","MICROREGIA":"ALFENAS","LATITUDE":-21.781,"LONGITUDE":-45.965,"SEDE":"Y","area":4.7472,"x":-46,"y":0,"x1":-4.599,"y1":-2.18}},{"type":"Polygon","arcs":[[-320,-437,469,470,471,472,-438,-231]],"properties":{"GEOCODIGO":3105103,"NOME":"Bambui","UF":"MG","ID_UF":31,"REGIAO":"Sudeste","MESOREGIAO":"145257,713149719","MICROREGIA":"PIUI","LATITUDE":-20.006,"LONGITUDE":-45.977,"SEDE":"Y","area":1.4525,"x":-46,"y":0,"x1":-4.599,"y1":-2.011}},{"type":"Polygon","arcs":[[-443,-424,473,474,-393]],"properties":{"GEOCODIGO":3117900,"NOME":"Congonhal","UF":"MG","ID_UF":31,"REGIAO":"Sudeste","MESOREGIAO":"20624,6311407316","MICROREGIA":"POUSO ALEGRE","LATITUDE":-22.153,"LONGITUDE":-46.039,"SEDE":"Y","area":2.0624,"x":-46,"y":0,"x1":-4.604,"y1":-2.214}},{"type":"Polygon","arcs":[[-412,-421,475,476,477,478,479,-406]],"properties":{"GEOCODIGO":3128105,"NOME":"Guape","UF":"MG","ID_UF":31,"REGIAO":"Sudeste","MESOREGIAO":"93526,1007583235","MICROREGIA":"VARGINHA","LATITUDE":-20.762,"LONGITUDE":-45.918,"SEDE":"Y","area":9.3526,"x":-46,"y":0,"x1":-4.592,"y1":-2.076}},{"type":"Polygon","arcs":[[480,481,-414,-449]],"properties":{"GEOCODIGO":3119906,"NOME":"Corrego do Bom Jesus","UF":"MG","ID_UF":31,"REGIAO":"Sudeste","MESOREGIAO":"12312,5007896796","MICROREGIA":"POUSO ALEGRE","LATITUDE":-22.63,"LONGITUDE":-46.02,"SEDE":"Y","area":1.2312,"x":-46,"y":0,"x1":-4.599,"y1":-2.263}},{"type":"Polygon","arcs":[[-456,-461,482,483,484,485,-465,-370]],"properties":{"GEOCODIGO":3139003,"NOME":"Machado","UF":"MG","ID_UF":31,"REGIAO":"Sudeste","MESOREGIAO":"58325,3583538246","MICROREGIA":"ALFENAS","LATITUDE":-21.675,"LONGITUDE":-45.92,"SEDE":"Y","area":5.8325,"x":-46,"y":0,"x1":-4.592,"y1":-2.166}},{"type":"Polygon","arcs":[[-475,486,487,488,489,490,-462,-394]],"properties":{"GEOCODIGO":3152501,"NOME":"Pouso Alegre","UF":"MG","ID_UF":31,"REGIAO":"Sudeste","MESOREGIAO":"54355,2261854704","MICROREGIA":"POUSO ALEGRE","LATITUDE":-22.23,"LONGITUDE":-45.936,"SEDE":"Y","area":5.4355,"x":-46,"y":0,"x1":-4.593,"y1":-2.226}},{"type":"Polygon","arcs":[[-469,491,492,-487,-474,-423]],"properties":{"GEOCODIGO":3124401,"NOME":"Espirito Santo do Dourado","UF":"MG","ID_UF":31,"REGIAO":"Sudeste","MESOREGIAO":"26370,3854620145","MICROREGIA":"POUSO ALEGRE","LATITUDE":-22.046,"LONGITUDE":-45.951,"SEDE":"Y","area":2.637,"x":-46,"y":0,"x1":-4.598,"y1":-2.2}},{"type":"Polygon","arcs":[[-377,493,494,-361]],"properties":{"GEOCODIGO":3103801,"NOME":"Arapua","UF":"MG","ID_UF":31,"REGIAO":"Sudeste","MESOREGIAO":"17180,9937755655","MICROREGIA":"PATOS DE MINAS","LATITUDE":-19.034,"LONGITUDE":-46.156,"SEDE":"Y","area":1.718,"x":-46,"y":0,"x1":-4.611,"y1":-1.904}},{"type":"Polygon","arcs":[[-468,495,496,-492]],"properties":{"GEOCODIGO":3162302,"NOME":"Sao Joao da Mata","UF":"MG","ID_UF":31,"REGIAO":"Sudeste","MESOREGIAO":"11997,9319907655","MICROREGIA":"SANTA RITA DO SAPUCAI","LATITUDE":-21.93,"LONGITUDE":-45.929,"SEDE":"Y","area":1.1997,"x":-46,"y":0,"x1":-4.592,"y1":-2.194}},{"type":"Polygon","arcs":[[-363,497,498,499,500,501,502,-444]],"properties":{"GEOCODIGO":3162104,"NOME":"Sao Gotardo","UF":"MG","ID_UF":31,"REGIAO":"Sudeste","MESOREGIAO":"85238,2608090095","MICROREGIA":"PATOS DE MINAS","LATITUDE":-19.311,"LONGITUDE":-46.049,"SEDE":"Y","area":8.5238,"x":-46,"y":0,"x1":-4.599,"y1":-1.935}},{"type":"Polygon","arcs":[[503,504,-417]],"properties":{"GEOCODIGO":3165404,"NOME":"Sapucai-Mirim","UF":"MG","ID_UF":31,"REGIAO":"Sudeste","MESOREGIAO":"28497,1244392864","MICROREGIA":"POUSO ALEGRE","LATITUDE":-22.748,"LONGITUDE":-45.743,"SEDE":"Y","area":2.8497,"x":-46,"y":0,"x1":-4.584,"y1":-2.278}},{"type":"Polygon","arcs":[[-446,505,506,507,-470,-436]],"properties":{"GEOCODIGO":3119807,"NOME":"Corrego Danta","UF":"MG","ID_UF":31,"REGIAO":"Sudeste","MESOREGIAO":"64362,7230585392","MICROREGIA":"PIUI","LATITUDE":-19.824,"LONGITUDE":-45.904,"SEDE":"Y","area":6.4362,"x":-46,"y":0,"x1":-4.598,"y1":-1.978}},{"type":"Polygon","arcs":[[-503,508,-506,-445]],"properties":{"GEOCODIGO":3159704,"NOME":"Santa Rosa da Serra","UF":"MG","ID_UF":31,"REGIAO":"Sudeste","MESOREGIAO":"29692,9100660258","MICROREGIA":"PATOS DE MINAS","LATITUDE":-19.53,"LONGITUDE":-45.966,"SEDE":"Y","area":2.9692,"x":-46,"y":0,"x1":-4.6,"y1":-1.956}},{"type":"Polygon","arcs":[[-451,-454,509,510,511,-427]],"properties":{"GEOCODIGO":3154457,"NOME":"Riachinho","UF":"MG","ID_UF":31,"REGIAO":"Sudeste","MESOREGIAO":"177276,560636047","MICROREGIA":"PIRAPORA","LATITUDE":-16.23,"LONGITUDE":-45.992,"SEDE":"Y","area":1.7727,"x":-46,"y":0,"x1":-4.592,"y1":-1.628}},{"type":"Polygon","arcs":[[-482,512,513,514,515,516,-415]],"properties":{"GEOCODIGO":3147303,"NOME":"Paraisopolis","UF":"MG","ID_UF":31,"REGIAO":"Sudeste","MESOREGIAO":"33127,7035502401","MICROREGIA":"ITAJUBA","LATITUDE":-22.554,"LONGITUDE":-45.78,"SEDE":"Y","area":3.3127,"x":-46,"y":0,"x1":-4.581,"y1":-2.257}},{"type":"Polygon","arcs":[[-448,-464,517,518,-513,-481]],"properties":{"GEOCODIGO":3118502,"NOME":"Consolacao","UF":"MG","ID_UF":31,"REGIAO":"Sudeste","MESOREGIAO":"8582,15027797797","MICROREGIA":"ITAJUBA","LATITUDE":-22.551,"LONGITUDE":-45.921,"SEDE":"Y","area":8.5821,"x":-46,"y":0,"x1":-4.591,"y1":-2.253}},{"type":"Polygon","arcs":[[-517,519,-504,-416]],"properties":{"GEOCODIGO":3127404,"NOME":"Goncalves","UF":"MG","ID_UF":31,"REGIAO":"Sudeste","MESOREGIAO":"18782,8372356145","MICROREGIA":"POUSO ALEGRE","LATITUDE":-22.659,"LONGITUDE":-45.856,"SEDE":"Y","area":1.8782,"x":-46,"y":0,"x1":-4.582,"y1":-2.267}},{"type":"Polygon","arcs":[[-434,-429,520,521,-378,-172]],"properties":{"GEOCODIGO":3108552,"NOME":"Brasilandia de Minas","UF":"MG","ID_UF":31,"REGIAO":"Sudeste","MESOREGIAO":"251311,492329487","MICROREGIA":"PARACATU","LATITUDE":-17.01,"LONGITUDE":-46.009,"SEDE":"Y","area":2.5131,"x":-46,"y":0,"x1":-4.59,"y1":-1.695}},{"type":"Polygon","arcs":[[-495,522,-498,-362]],"properties":{"GEOCODIGO":3141207,"NOME":"Matutina","UF":"MG","ID_UF":31,"REGIAO":"Sudeste","MESOREGIAO":"25927,6187160083","MICROREGIA":"PATOS DE MINAS","LATITUDE":-19.223,"LONGITUDE":-45.969,"SEDE":"Y","area":2.5927,"x":-46,"y":0,"x1":-4.599,"y1":-1.919}},{"type":"Polygon","arcs":[[-491,523,524,525,526,-518,-463]],"properties":{"GEOCODIGO":3109709,"NOME":"Cachoeira de Minas","UF":"MG","ID_UF":31,"REGIAO":"Sudeste","MESOREGIAO":"30525,9176903466","MICROREGIA":"SANTA RITA DO SAPUCAI","LATITUDE":-22.355,"LONGITUDE":-45.779,"SEDE":"Y","area":3.0525,"x":-46,"y":0,"x1":-4.579,"y1":-2.236}},{"type":"Polygon","arcs":[[-497,527,528,529,530,-488,-493]],"properties":{"GEOCODIGO":3167400,"NOME":"Silvianopolis","UF":"MG","ID_UF":31,"REGIAO":"Sudeste","MESOREGIAO":"31263,7671166862","MICROREGIA":"SANTA RITA DO SAPUCAI","LATITUDE":-22.029,"LONGITUDE":-45.835,"SEDE":"Y","area":3.1263,"x":-46,"y":0,"x1":-4.58,"y1":-2.203}},{"type":"Polygon","arcs":[[-301,531,532,-237]],"properties":{"GEOCODIGO":3170750,"NOME":"Varjao de Minas","UF":"MG","ID_UF":31,"REGIAO":"Sudeste","MESOREGIAO":"65288,7392617182","MICROREGIA":"PARACATU","LATITUDE":-18.378,"LONGITUDE":-46.032,"SEDE":"Y","area":6.5288,"x":-46,"y":0,"x1":-4.593,"y1":-1.846}},{"type":"Polygon","arcs":[[-527,533,-514,-519]],"properties":{"GEOCODIGO":3117801,"NOME":"Conceicao dos Ouros","UF":"MG","ID_UF":31,"REGIAO":"Sudeste","MESOREGIAO":"18298,8835402897","MICROREGIA":"SANTA RITA DO SAPUCAI","LATITUDE":-22.413,"LONGITUDE":-45.798,"SEDE":"Y","area":1.8298,"x":-46,"y":0,"x1":-4.577,"y1":-2.244}},{"type":"Polygon","arcs":[[-409,534,535,-457]],"properties":{"GEOCODIGO":3111309,"NOME":"Campo do Meio","UF":"MG","ID_UF":31,"REGIAO":"Sudeste","MESOREGIAO":"27385,1610735864","MICROREGIA":"VARGINHA","LATITUDE":-21.107,"LONGITUDE":-45.83,"SEDE":"Y","area":2.7385,"x":-46,"y":0,"x1":-4.584,"y1":-2.111}},{"type":"Polygon","arcs":[[-536,536,537,538,539,540,-458]],"properties":{"GEOCODIGO":3111606,"NOME":"Campos Gerais","UF":"MG","ID_UF":31,"REGIAO":"Sudeste","MESOREGIAO":"76918,1947610393","MICROREGIA":"VARGINHA","LATITUDE":-21.235,"LONGITUDE":-45.759,"SEDE":"Y","area":7.6918,"x":-46,"y":0,"x1":-4.575,"y1":-2.125}},{"type":"Polygon","arcs":[[-376,-238,-533,541,542,543,544,545,546,-499,-523,-494]],"properties":{"GEOCODIGO":3168903,"NOME":"Tiros","UF":"MG","ID_UF":31,"REGIAO":"Sudeste","MESOREGIAO":"209313,27671853","MICROREGIA":"PATOS DE MINAS","LATITUDE":-19.004,"LONGITUDE":-45.964,"SEDE":"Y","area":2.0931,"x":-46,"y":0,"x1":-4.582,"y1":-1.886}},{"type":"Polygon","arcs":[[-441,547,548,-476]],"properties":{"GEOCODIGO":3150505,"NOME":"Pimenta","UF":"MG","ID_UF":31,"REGIAO":"Sudeste","MESOREGIAO":"41502,4111647329","MICROREGIA":"FORMIGA","LATITUDE":-20.484,"LONGITUDE":-45.799,"SEDE":"Y","area":4.1502,"x":-46,"y":0,"x1":-4.583,"y1":-2.053}},{"type":"Polygon","arcs":[[-531,549,550,-489]],"properties":{"GEOCODIGO":3164407,"NOME":"Sao Sebastiao da Bela Vista","UF":"MG","ID_UF":31,"REGIAO":"Sudeste","MESOREGIAO":"16679,4736830704","MICROREGIA":"SANTA RITA DO SAPUCAI","LATITUDE":-22.159,"LONGITUDE":-45.754,"SEDE":"Y","area":1.6679,"x":-46,"y":0,"x1":-4.577,"y1":-2.216}},{"type":"Polygon","arcs":[[-473,551,552,-439]],"properties":{"GEOCODIGO":3123403,"NOME":"Doresopolis","UF":"MG","ID_UF":31,"REGIAO":"Sudeste","MESOREGIAO":"15413,3232214126","MICROREGIA":"PIUI","LATITUDE":-20.287,"LONGITUDE":-45.903,"SEDE":"Y","area":1.5413,"x":-46,"y":0,"x1":-4.588,"y1":-2.029}},{"type":"Polygon","arcs":[[-480,553,-407]],"properties":{"GEOCODIGO":3130507,"NOME":"Ilicinea","UF":"MG","ID_UF":31,"REGIAO":"Sudeste","MESOREGIAO":"37621,1177292044","MICROREGIA":"VARGINHA","LATITUDE":-20.936,"LONGITUDE":-45.833,"SEDE":"Y","area":3.7621,"x":-46,"y":0,"x1":-4.58,"y1":-2.093}},{"type":"Polygon","arcs":[[554,-466,-486]],"properties":{"GEOCODIGO":3114709,"NOME":"Carvalhopolis","UF":"MG","ID_UF":31,"REGIAO":"Sudeste","MESOREGIAO":"8011,49560989629","MICROREGIA":"ALFENAS","LATITUDE":-21.778,"LONGITUDE":-45.841,"SEDE":"Y","area":8.0114,"x":-46,"y":0,"x1":-4.583,"y1":-2.177}},{"type":"Polygon","arcs":[[-554,-479,555,556,557,558,-537,-535,-408]],"properties":{"GEOCODIGO":3107109,"NOME":"Boa Esperanca","UF":"MG","ID_UF":31,"REGIAO":"Sudeste","MESOREGIAO":"85687,1237050228","MICROREGIA":"VARGINHA","LATITUDE":-21.09,"LONGITUDE":-45.566,"SEDE":"Y","area":8.5687,"x":-46,"y":0,"x1":-4.562,"y1":-2.104}},{"type":"Polygon","arcs":[[559,560,561,562,563,-524,-490,-551]],"properties":{"GEOCODIGO":3159605,"NOME":"Santa Rita do Sapucai","UF":"MG","ID_UF":31,"REGIAO":"Sudeste","MESOREGIAO":"35007,4939493176","MICROREGIA":"SANTA RITA DO SAPUCAI","LATITUDE":-22.252,"LONGITUDE":-45.703,"SEDE":"Y","area":3.5007,"x":-46,"y":0,"x1":-4.568,"y1":-2.223}},{"type":"Polygon","arcs":[[-555,-485,564,565,-528,-496,-467]],"properties":{"GEOCODIGO":3169802,"NOME":"Turvolandia","UF":"MG","ID_UF":31,"REGIAO":"Sudeste","MESOREGIAO":"22087,740548715","MICROREGIA":"SANTA RITA DO SAPUCAI","LATITUDE":-21.876,"LONGITUDE":-45.787,"SEDE":"Y","area":2.2087,"x":-46,"y":0,"x1":-4.579,"y1":-2.188}},{"type":"Polygon","arcs":[[-541,566,-459]],"properties":{"GEOCODIGO":3125200,"NOME":"Fama","UF":"MG","ID_UF":31,"REGIAO":"Sudeste","MESOREGIAO":"8717,41939638363","MICROREGIA":"ALFENAS","LATITUDE":-21.406,"LONGITUDE":-45.829,"SEDE":"Y","area":8.7174,"x":-46,"y":0,"x1":-4.581,"y1":-2.146}},{"type":"Polygon","arcs":[[-567,-540,567,568,569,-483,-460]],"properties":{"GEOCODIGO":3147204,"NOME":"Paraguacu","UF":"MG","ID_UF":31,"REGIAO":"Sudeste","MESOREGIAO":"42480,8329384791","MICROREGIA":"ALFENAS","LATITUDE":-21.547,"LONGITUDE":-45.738,"SEDE":"Y","area":4.248,"x":-46,"y":0,"x1":-4.574,"y1":-2.156}},{"type":"Polygon","arcs":[[-300,-380,570,571,572,-542,-532]],"properties":{"GEOCODIGO":3161700,"NOME":"Sao Goncalo do Abaete","UF":"MG","ID_UF":31,"REGIAO":"Sudeste","MESOREGIAO":"268550,749122375","MICROREGIA":"PARACATU","LATITUDE":-18.338,"LONGITUDE":-45.833,"SEDE":"Y","area":2.6855,"x":-46,"y":0,"x1":-4.554,"y1":-1.817}},{"type":"Polygon","arcs":[[-509,-502,573,574,575,-507]],"properties":{"GEOCODIGO":3124708,"NOME":"Estrela do Indaia","UF":"MG","ID_UF":31,"REGIAO":"Sudeste","MESOREGIAO":"63511,7716976496","MICROREGIA":"BOM DESPACHO","LATITUDE":-19.522,"LONGITUDE":-45.788,"SEDE":"Y","area":6.3511,"x":-46,"y":0,"x1":-4.58,"y1":-1.959}},{"type":"Polygon","arcs":[[-576,576,577,578,579,580,581,582,-471,-508]],"properties":{"GEOCODIGO":3138807,"NOME":"Luz","UF":"MG","ID_UF":31,"REGIAO":"Sudeste","MESOREGIAO":"116996,090530727","MICROREGIA":"BOM DESPACHO","LATITUDE":-19.801,"LONGITUDE":-45.686,"SEDE":"Y","area":1.1699,"x":-46,"y":0,"x1":-4.567,"y1":-1.982}},{"type":"Polygon","arcs":[[-472,-583,583,584,-552]],"properties":{"GEOCODIGO":3130309,"NOME":"Iguatama","UF":"MG","ID_UF":31,"REGIAO":"Sudeste","MESOREGIAO":"62958,4874672038","MICROREGIA":"PIUI","LATITUDE":-20.174,"LONGITUDE":-45.711,"SEDE":"Y","area":6.2958,"x":-46,"y":0,"x1":-4.575,"y1":-2.015}},{"type":"Polygon","arcs":[[585,586,-574,-501]],"properties":{"GEOCODIGO":3166600,"NOME":"Serra da Saudade","UF":"MG","ID_UF":31,"REGIAO":"Sudeste","MESOREGIAO":"33584,2703787788","MICROREGIA":"BOM DESPACHO","LATITUDE":-19.438,"LONGITUDE":-45.796,"SEDE":"Y","area":3.3584,"x":-46,"y":0,"x1":-4.577,"y1":-1.938}},{"type":"Polygon","arcs":[[-549,587,588,589,590,591,592,593,594,-477]],"properties":{"GEOCODIGO":3126109,"NOME":"Formiga","UF":"MG","ID_UF":31,"REGIAO":"Sudeste","MESOREGIAO":"150011,20925733","MICROREGIA":"FORMIGA","LATITUDE":-20.464,"LONGITUDE":-45.426,"SEDE":"Y","area":1.5001,"x":-46,"y":0,"x1":-4.551,"y1":-2.055}},{"type":"Polygon","arcs":[[-512,595,596,597,-521,-428]],"properties":{"GEOCODIGO":3157609,"NOME":"Santa Fe de Minas","UF":"MG","ID_UF":31,"REGIAO":"Sudeste","MESOREGIAO":"291514,529309613","MICROREGIA":"PIRAPORA","LATITUDE":-16.69,"LONGITUDE":-45.414,"SEDE":"N","area":2.9151,"x":-46,"y":0,"x1":-4.555,"y1":-1.67}},{"type":"Polygon","arcs":[[-530,598,599,600,-560,-550]],"properties":{"GEOCODIGO":3113602,"NOME":"Careacu","UF":"MG","ID_UF":31,"REGIAO":"Sudeste","MESOREGIAO":"18227,8158452222","MICROREGIA":"SANTA RITA DO SAPUCAI","LATITUDE":-22.043,"LONGITUDE":-45.699,"SEDE":"Y","area":1.8227,"x":-46,"y":0,"x1":-4.566,"y1":-2.207}},{"type":"Polygon","arcs":[[-585,601,602,-588,-548,-440,-553]],"properties":{"GEOCODIGO":3146503,"NOME":"Pains","UF":"MG","ID_UF":31,"REGIAO":"Sudeste","MESOREGIAO":"41685,9390384762","MICROREGIA":"FORMIGA","LATITUDE":-20.371,"LONGITUDE":-45.661,"SEDE":"Y","area":4.1685,"x":-46,"y":0,"x1":-4.569,"y1":-2.038}},{"type":"Polygon","arcs":[[603,604,605,606,607,-599,-529,-566]],"properties":{"GEOCODIGO":3162005,"NOME":"Sao Goncalo do Sapucai","UF":"MG","ID_UF":31,"REGIAO":"Sudeste","MESOREGIAO":"51721,5178928618","MICROREGIA":"SANTA RITA DO SAPUCAI","LATITUDE":-21.892,"LONGITUDE":-45.595,"SEDE":"Y","area":5.1721,"x":-46,"y":0,"x1":-4.559,"y1":-2.191}},{"type":"Polygon","arcs":[[-484,-570,608,609,-604,-565]],"properties":{"GEOCODIGO":3119005,"NOME":"Cordislandia","UF":"MG","ID_UF":31,"REGIAO":"Sudeste","MESOREGIAO":"18038,2385821192","MICROREGIA":"SANTA RITA DO SAPUCAI","LATITUDE":-21.793,"LONGITUDE":-45.701,"SEDE":"N","area":1.8038,"x":-46,"y":0,"x1":-4.566,"y1":-2.178}},{"type":"Polygon","arcs":[[-534,-526,610,611,612,-515]],"properties":{"GEOCODIGO":3108909,"NOME":"Brasopolis","UF":"MG","ID_UF":31,"REGIAO":"Sudeste","MESOREGIAO":"36087,0601685393","MICROREGIA":"ITAJUBA","LATITUDE":-22.474,"LONGITUDE":-45.608,"SEDE":"Y","area":3.6087,"x":-46,"y":0,"x1":-4.562,"y1":-2.249}},{"type":"Polygon","arcs":[[-547,613,614,615,616,-586,-500]],"properties":{"GEOCODIGO":3153707,"NOME":"Quartel Geral","UF":"MG","ID_UF":31,"REGIAO":"Sudeste","MESOREGIAO":"55633,2427985486","MICROREGIA":"BOM DESPACHO","LATITUDE":-19.274,"LONGITUDE":-45.557,"SEDE":"Y","area":5.5633,"x":-46,"y":0,"x1":-4.56,"y1":-1.927}},{"type":"Polygon","arcs":[[617,618,619,-609,-569]],"properties":{"GEOCODIGO":3123601,"NOME":"Eloi Mendes","UF":"MG","ID_UF":31,"REGIAO":"Sudeste","MESOREGIAO":"49826,6937463965","MICROREGIA":"VARGINHA","LATITUDE":-21.61,"LONGITUDE":-45.565,"SEDE":"Y","area":4.9826,"x":-46,"y":0,"x1":-4.559,"y1":-2.161}},{"type":"Polygon","arcs":[[-564,620,621,622,-611,-525]],"properties":{"GEOCODIGO":3151008,"NOME":"Piranguinho","UF":"MG","ID_UF":31,"REGIAO":"Sudeste","MESOREGIAO":"12998,037770752","MICROREGIA":"ITAJUBA","LATITUDE":-22.401,"LONGITUDE":-45.532,"SEDE":"Y","area":1.2998,"x":-46,"y":0,"x1":-4.558,"y1":-2.236}},{"type":"Polygon","arcs":[[623,624,625,626,-618,-568,-539]],"properties":{"GEOCODIGO":3169406,"NOME":"Tres Pontas","UF":"MG","ID_UF":31,"REGIAO":"Sudeste","MESOREGIAO":"68899,3878451937","MICROREGIA":"VARGINHA","LATITUDE":-21.367,"LONGITUDE":-45.513,"SEDE":"Y","area":6.8899,"x":-45,"y":0,"x1":-4.549,"y1":-2.139}},{"type":"Polygon","arcs":[[-595,627,628,629,-556,-478]],"properties":{"GEOCODIGO":3120201,"NOME":"Cristais","UF":"MG","ID_UF":31,"REGIAO":"Sudeste","MESOREGIAO":"62678,7201101062","MICROREGIA":"CAMPO BELO","LATITUDE":-20.876,"LONGITUDE":-45.519,"SEDE":"Y","area":6.2678,"x":-46,"y":0,"x1":-4.555,"y1":-2.081}},{"type":"Polygon","arcs":[[-608,630,631,-600]],"properties":{"GEOCODIGO":3129202,"NOME":"Heliodora","UF":"MG","ID_UF":31,"REGIAO":"Sudeste","MESOREGIAO":"15399,1815316868","MICROREGIA":"SANTA RITA DO SAPUCAI","LATITUDE":-22.067,"LONGITUDE":-45.542,"SEDE":"Y","area":1.5399,"x":-46,"y":0,"x1":-4.554,"y1":-2.204}},{"type":"Polygon","arcs":[[-632,632,633,634,635,-561,-601]],"properties":{"GEOCODIGO":3144409,"NOME":"Natercia","UF":"MG","ID_UF":31,"REGIAO":"Sudeste","MESOREGIAO":"18987,4089120574","MICROREGIA":"SANTA RITA DO SAPUCAI","LATITUDE":-22.12,"LONGITUDE":-45.512,"SEDE":"Y","area":1.8987,"x":-46,"y":0,"x1":-4.551,"y1":-2.213}},{"type":"Polygon","arcs":[[-546,636,637,-614]],"properties":{"GEOCODIGO":3115607,"NOME":"Cedro do Abaete","UF":"MG","ID_UF":31,"REGIAO":"Sudeste","MESOREGIAO":"27984,5242111847","MICROREGIA":"TRES MARIAS","LATITUDE":-19.148,"LONGITUDE":-45.711,"SEDE":"Y","area":2.7984,"x":-46,"y":0,"x1":-4.569,"y1":-1.912}},{"type":"Polygon","arcs":[[-453,638,639,640,-510]],"properties":{"GEOCODIGO":3170529,"NOME":"Urucuia","UF":"MG","ID_UF":31,"REGIAO":"Sudeste","MESOREGIAO":"207074,279069077","MICROREGIA":"JANUARIA","LATITUDE":-16.133,"LONGITUDE":-45.742,"SEDE":"Y","area":2.0707,"x":-46,"y":0,"x1":-4.557,"y1":-1.602}},{"type":"Polygon","arcs":[[-612,-623,641,642,643]],"properties":{"GEOCODIGO":3150901,"NOME":"Pirangucu","UF":"MG","ID_UF":31,"REGIAO":"Sudeste","MESOREGIAO":"20572,2493130237","MICROREGIA":"ITAJUBA","LATITUDE":-22.528,"LONGITUDE":-45.495,"SEDE":"Y","area":2.0572,"x":-46,"y":0,"x1":-4.551,"y1":-2.255}},{"type":"Polygon","arcs":[[-617,644,645,-577,-575,-587]],"properties":{"GEOCODIGO":3123205,"NOME":"Dores do Indaia","UF":"MG","ID_UF":31,"REGIAO":"Sudeste","MESOREGIAO":"110931,23065391","MICROREGIA":"BOM DESPACHO","LATITUDE":-19.463,"LONGITUDE":-45.602,"SEDE":"Y","area":1.1093,"x":-46,"y":0,"x1":-4.554,"y1":-1.948}},{"type":"Polygon","arcs":[[646,647,648,-621,-563]],"properties":{"GEOCODIGO":3163201,"NOME":"Sao Jose do Alegre","UF":"MG","ID_UF":31,"REGIAO":"Sudeste","MESOREGIAO":"8964,77376344955","MICROREGIA":"SANTA RITA DO SAPUCAI","LATITUDE":-22.329,"LONGITUDE":-45.526,"SEDE":"Y","area":8.9647,"x":-46,"y":0,"x1":-4.551,"y1":-2.233}},{"type":"Polygon","arcs":[[-636,649,650,651,-647,-562]],"properties":{"GEOCODIGO":3149101,"NOME":"Pedralva","UF":"MG","ID_UF":31,"REGIAO":"Sudeste","MESOREGIAO":"21746,0501235511","MICROREGIA":"SANTA RITA DO SAPUCAI","LATITUDE":-22.243,"LONGITUDE":-45.466,"SEDE":"Y","area":2.1746,"x":-45,"y":0,"x1":-4.545,"y1":-2.224}},{"type":"Polygon","arcs":[[-582,652,653,-590,654,-602,-584]],"properties":{"GEOCODIGO":3104205,"NOME":"Arcos","UF":"MG","ID_UF":31,"REGIAO":"Sudeste","MESOREGIAO":"51009,014175152","MICROREGIA":"FORMIGA","LATITUDE":-20.282,"LONGITUDE":-45.539,"SEDE":"Y","area":5.1009,"x":-46,"y":0,"x1":-4.554,"y1":-2.025}},{"type":"Polygon","arcs":[[-559,655,656,-624,-538]],"properties":{"GEOCODIGO":3158300,"NOME":"Santana da Vargem","UF":"MG","ID_UF":31,"REGIAO":"Sudeste","MESOREGIAO":"17158,788730832","MICROREGIA":"VARGINHA","LATITUDE":-21.249,"LONGITUDE":-45.507,"SEDE":"Y","area":1.7158,"x":-46,"y":0,"x1":-4.55,"y1":-2.127}},{"type":"Polygon","arcs":[[657,658,659,-605,-610,-620]],"properties":{"GEOCODIGO":3142601,"NOME":"Monsenhor Paulo","UF":"MG","ID_UF":31,"REGIAO":"Sudeste","MESOREGIAO":"21546,8331865463","MICROREGIA":"VARGINHA","LATITUDE":-21.758,"LONGITUDE":-45.541,"SEDE":"Y","area":2.1546,"x":-45,"y":0,"x1":-4.548,"y1":-2.173}},{"type":"Polygon","arcs":[[-649,660,661,662,-642,-622]],"properties":{"GEOCODIGO":3132404,"NOME":"Itajuba","UF":"MG","ID_UF":31,"REGIAO":"Sudeste","MESOREGIAO":"29010,1263349685","MICROREGIA":"ITAJUBA","LATITUDE":-22.426,"LONGITUDE":-45.453,"SEDE":"Y","area":2.901,"x":-45,"y":0,"x1":-4.541,"y1":-2.242}},{"type":"Polygon","arcs":[[-511,-641,663,664,665,666,667,-596]],"properties":{"GEOCODIGO":3164209,"NOME":"Sao Romao","UF":"MG","ID_UF":31,"REGIAO":"Sudeste","MESOREGIAO":"243120,471637521","MICROREGIA":"PIRAPORA","LATITUDE":-16.369,"LONGITUDE":-45.069,"SEDE":"Y","area":2.4312,"x":-45,"y":0,"x1":-4.54,"y1":-1.638}},{"type":"Polygon","arcs":[[668,669,670,-637,-545]],"properties":{"GEOCODIGO":3146404,"NOME":"Paineiras","UF":"MG","ID_UF":31,"REGIAO":"Sudeste","MESOREGIAO":"63643,0714502779","MICROREGIA":"TRES MARIAS","LATITUDE":-18.908,"LONGITUDE":-45.532,"SEDE":"Y","area":6.3643,"x":-45,"y":0,"x1":-4.549,"y1":-1.891}},{"type":"Polygon","arcs":[[671,-669,-544]],"properties":{"GEOCODIGO":3107000,"NOME":"Biquinhas","UF":"MG","ID_UF":31,"REGIAO":"Sudeste","MESOREGIAO":"45736,0392237581","MICROREGIA":"TRES MARIAS","LATITUDE":-18.783,"LONGITUDE":-45.502,"SEDE":"Y","area":4.5736,"x":-46,"y":0,"x1":-4.553,"y1":-1.875}},{"type":"Polygon","arcs":[[-627,672,673,-658,-619]],"properties":{"GEOCODIGO":3170701,"NOME":"Varginha","UF":"MG","ID_UF":31,"REGIAO":"Sudeste","MESOREGIAO":"39552,274930025","MICROREGIA":"VARGINHA","LATITUDE":-21.551,"LONGITUDE":-45.43,"SEDE":"Y","area":3.9552,"x":-45,"y":0,"x1":-4.54,"y1":-2.155}},{"type":"Polygon","arcs":[[674,675,676,-650,-635]],"properties":{"GEOCODIGO":3117207,"NOME":"Conceicao das Pedras","UF":"MG","ID_UF":31,"REGIAO":"Sudeste","MESOREGIAO":"10136,9590494684","MICROREGIA":"SANTA RITA DO SAPUCAI","LATITUDE":-22.16,"LONGITUDE":-45.455,"SEDE":"Y","area":1.0136,"x":-45,"y":0,"x1":-4.542,"y1":-2.214}},{"type":"Polygon","arcs":[[-581,677,678,-653]],"properties":{"GEOCODIGO":3135308,"NOME":"Japaraiba","UF":"MG","ID_UF":31,"REGIAO":"Sudeste","MESOREGIAO":"17218,0728997895","MICROREGIA":"BOM DESPACHO","LATITUDE":-20.141,"LONGITUDE":-45.503,"SEDE":"Y","area":1.7218,"x":-46,"y":0,"x1":-4.552,"y1":-2.013}},{"type":"Polygon","arcs":[[-663,679,680,-643]],"properties":{"GEOCODIGO":3172202,"NOME":"Wenceslau Braz","UF":"MG","ID_UF":31,"REGIAO":"Sudeste","MESOREGIAO":"10169,7607217349","MICROREGIA":"ITAJUBA","LATITUDE":-22.534,"LONGITUDE":-45.363,"SEDE":"Y","area":1.0169,"x":-45,"y":0,"x1":-4.54,"y1":-2.255}},{"type":"Polygon","arcs":[[681,682,-678,-580]],"properties":{"GEOCODIGO":3137205,"NOME":"Lagoa da Prata","UF":"MG","ID_UF":31,"REGIAO":"Sudeste","MESOREGIAO":"43937,9449161598","MICROREGIA":"BOM DESPACHO","LATITUDE":-20.023,"LONGITUDE":-45.544,"SEDE":"Y","area":4.3937,"x":-45,"y":0,"x1":-4.549,"y1":-2.001}},{"type":"Polygon","arcs":[[-638,-671,683,684,-615]],"properties":{"GEOCODIGO":3100203,"NOME":"Abaete","UF":"MG","ID_UF":31,"REGIAO":"Sudeste","MESOREGIAO":"181449,165653284","MICROREGIA":"TRES MARIAS","LATITUDE":-19.16,"LONGITUDE":-45.446,"SEDE":"Y","area":1.8144,"x":-45,"y":0,"x1":-4.535,"y1":-1.91}},{"type":"Polygon","arcs":[[-603,-655,-589]],"properties":{"GEOCODIGO":3119955,"NOME":"Corrego Fundo","UF":"MG","ID_UF":31,"REGIAO":"Sudeste","MESOREGIAO":"10549,9402843098","MICROREGIA":"FORMIGA","LATITUDE":-20.449,"LONGITUDE":-45.555,"SEDE":"Y","area":1.0549,"x":-46,"y":0,"x1":-4.553,"y1":-2.044}},{"type":"Polygon","arcs":[[-660,685,686,687,-606]],"properties":{"GEOCODIGO":3110905,"NOME":"Campanha","UF":"MG","ID_UF":31,"REGIAO":"Sudeste","MESOREGIAO":"33535,5270821983","MICROREGIA":"VARGINHA","LATITUDE":-21.836,"LONGITUDE":-45.401,"SEDE":"Y","area":3.3535,"x":-45,"y":0,"x1":-4.54,"y1":-2.184}},{"type":"Polygon","arcs":[[-607,-688,688,689,-633,-631]],"properties":{"GEOCODIGO":3137809,"NOME":"Lambari","UF":"MG","ID_UF":31,"REGIAO":"Sudeste","MESOREGIAO":"21365,6697251366","MICROREGIA":"SAO LOURENCO","LATITUDE":-21.976,"LONGITUDE":-45.35,"SEDE":"Y","area":2.1365,"x":-45,"y":0,"x1":-4.537,"y1":-2.2}},{"type":"Polygon","arcs":[[690,691,-656,-558]],"properties":{"GEOCODIGO":3118700,"NOME":"Coqueiral","UF":"MG","ID_UF":31,"REGIAO":"Sudeste","MESOREGIAO":"29737,5261466179","MICROREGIA":"VARGINHA","LATITUDE":-21.189,"LONGITUDE":-45.441,"SEDE":"Y","area":2.9737,"x":-45,"y":0,"x1":-4.541,"y1":-2.116}},{"type":"Polygon","arcs":[[-630,692,-691,-557]],"properties":{"GEOCODIGO":3100807,"NOME":"Aguanil","UF":"MG","ID_UF":31,"REGIAO":"Sudeste","MESOREGIAO":"23491,5189893119","MICROREGIA":"CAMPO BELO","LATITUDE":-20.943,"LONGITUDE":-45.393,"SEDE":"Y","area":2.3491,"x":-45,"y":0,"x1":-4.542,"y1":-2.097}},{"type":"Polygon","arcs":[[-648,-652,693,694,695,696,-661]],"properties":{"GEOCODIGO":3139904,"NOME":"Maria da Fe","UF":"MG","ID_UF":31,"REGIAO":"Sudeste","MESOREGIAO":"20392,6410293746","MICROREGIA":"ITAJUBA","LATITUDE":-22.308,"LONGITUDE":-45.375,"SEDE":"Y","area":2.0392,"x":-45,"y":0,"x1":-4.531,"y1":-2.232}},{"type":"Polygon","arcs":[[-680,-662,-697,697,698,699]],"properties":{"GEOCODIGO":3121100,"NOME":"Delfim Moreira","UF":"MG","ID_UF":31,"REGIAO":"Sudeste","MESOREGIAO":"40800,2031430832","MICROREGIA":"ITAJUBA","LATITUDE":-22.509,"LONGITUDE":-45.28,"SEDE":"Y","area":4.08,"x":-45,"y":0,"x1":-4.528,"y1":-2.25}},{"type":"Polygon","arcs":[[-543,-573,700,701,702,-670,-672]],"properties":{"GEOCODIGO":3143500,"NOME":"Morada Nova de Minas","UF":"MG","ID_UF":31,"REGIAO":"Sudeste","MESOREGIAO":"208342,314936454","MICROREGIA":"TRES MARIAS","LATITUDE":-18.604,"LONGITUDE":-45.357,"SEDE":"Y","area":2.0834,"x":-45,"y":0,"x1":-4.54,"y1":-1.857}},{"type":"Polygon","arcs":[[-431,703,704,705,706,-639,-452]],"properties":{"GEOCODIGO":3116159,"NOME":"Chapada Gaucha","UF":"MG","ID_UF":31,"REGIAO":"Sudeste","MESOREGIAO":"321217,224974282","MICROREGIA":"JANUARIA","LATITUDE":-15.306,"LONGITUDE":-45.618,"SEDE":"Y","area":3.2121,"x":-45,"y":0,"x1":-4.545,"y1":-1.546}},{"type":"Polygon","arcs":[[-594,707,708,709,710,-628]],"properties":{"GEOCODIGO":3112000,"NOME":"Candeias","UF":"MG","ID_UF":31,"REGIAO":"Sudeste","MESOREGIAO":"72020,9947963925","MICROREGIA":"CAMPO BELO","LATITUDE":-20.767,"LONGITUDE":-45.276,"SEDE":"Y","area":7.2021,"x":-45,"y":0,"x1":-4.527,"y1":-2.074}},{"type":"Polygon","arcs":[[-677,711,712,713,-694,-651]],"properties":{"GEOCODIGO":3120508,"NOME":"Cristina","UF":"MG","ID_UF":31,"REGIAO":"Sudeste","MESOREGIAO":"31205,854199728","MICROREGIA":"ITAJUBA","LATITUDE":-22.212,"LONGITUDE":-45.264,"SEDE":"Y","area":3.1205,"x":-45,"y":0,"x1":-4.528,"y1":-2.22}},{"type":"Polygon","arcs":[[-674,714,715,716,717,718,-686,-659]],"properties":{"GEOCODIGO":3169307,"NOME":"Tres Coracoes","UF":"MG","ID_UF":31,"REGIAO":"Sudeste","MESOREGIAO":"82583,4494411296","MICROREGIA":"VARGINHA","LATITUDE":-21.697,"LONGITUDE":-45.253,"SEDE":"Y","area":8.2583,"x":-45,"y":0,"x1":-4.52,"y1":-2.168}},{"type":"Polygon","arcs":[[-646,719,720,721,722,723,-578]],"properties":{"GEOCODIGO":3107406,"NOME":"Bom Despacho","UF":"MG","ID_UF":31,"REGIAO":"Sudeste","MESOREGIAO":"120843,3065322","MICROREGIA":"BOM DESPACHO","LATITUDE":-19.736,"LONGITUDE":-45.252,"SEDE":"Y","area":1.2084,"x":-45,"y":0,"x1":-4.528,"y1":-1.968}},{"type":"Polygon","arcs":[[724,-723,725,726,727,728,729,-591,-654,-679,-683]],"properties":{"GEOCODIGO":3160405,"NOME":"Santo Antonio do Monte","UF":"MG","ID_UF":31,"REGIAO":"Sudeste","MESOREGIAO":"112845,50965365","MICROREGIA":"DIVINOPOLIS","LATITUDE":-20.087,"LONGITUDE":-45.294,"SEDE":"Y","area":1.1284,"x":-45,"y":0,"x1":-4.529,"y1":-2.008}},{"type":"Polygon","arcs":[[-724,-725,-682,-579]],"properties":{"GEOCODIGO":3142403,"NOME":"Moema","UF":"MG","ID_UF":31,"REGIAO":"Sudeste","MESOREGIAO":"20328,550713436","MICROREGIA":"BOM DESPACHO","LATITUDE":-19.843,"LONGITUDE":-45.411,"SEDE":"Y","area":2.0328,"x":-45,"y":0,"x1":-4.54,"y1":-1.984}},{"type":"Polygon","arcs":[[-690,730,731,732,733,-675,-634]],"properties":{"GEOCODIGO":3135902,"NOME":"Jesuania","UF":"MG","ID_UF":31,"REGIAO":"Sudeste","MESOREGIAO":"15340,0138510001","MICROREGIA":"SAO LOURENCO","LATITUDE":-21.998,"LONGITUDE":-45.291,"SEDE":"Y","area":1.534,"x":-45,"y":0,"x1":-4.527,"y1":-2.201}},{"type":"Polygon","arcs":[[-629,-711,734,735,736,-693]],"properties":{"GEOCODIGO":3111200,"NOME":"Campo Belo","UF":"MG","ID_UF":31,"REGIAO":"Sudeste","MESOREGIAO":"52623,8831571268","MICROREGIA":"CAMPO BELO","LATITUDE":-20.897,"LONGITUDE":-45.277,"SEDE":"Y","area":5.2623,"x":-45,"y":0,"x1":-4.525,"y1":-2.092}},{"type":"Polygon","arcs":[[-692,-737,737,738,739,740,-625,-657]],"properties":{"GEOCODIGO":3144607,"NOME":"Nepomuceno","UF":"MG","ID_UF":31,"REGIAO":"Sudeste","MESOREGIAO":"58172,3966978089","MICROREGIA":"LAVRAS","LATITUDE":-21.236,"LONGITUDE":-45.236,"SEDE":"Y","area":5.8172,"x":-45,"y":0,"x1":-4.526,"y1":-2.122}},{"type":"Polygon","arcs":[[-719,741,-731,-689,-687]],"properties":{"GEOCODIGO":3110707,"NOME":"Cambuquira","UF":"MG","ID_UF":31,"REGIAO":"Sudeste","MESOREGIAO":"24532,3414826169","MICROREGIA":"SAO LOURENCO","LATITUDE":-21.852,"LONGITUDE":-45.296,"SEDE":"Y","area":2.4532,"x":-45,"y":0,"x1":-4.526,"y1":-2.185}},{"type":"Polygon","arcs":[[-734,742,-712,-676]],"properties":{"GEOCODIGO":3145505,"NOME":"Olimpio Noronha","UF":"MG","ID_UF":31,"REGIAO":"Sudeste","MESOREGIAO":"5362,04109150509","MICROREGIA":"SAO LOURENCO","LATITUDE":-22.068,"LONGITUDE":-45.264,"SEDE":"Y","area":5.362,"x":-45,"y":0,"x1":-4.528,"y1":-2.209}},{"type":"Polygon","arcs":[[-741,743,744,745,746,-715,-673,-626]],"properties":{"GEOCODIGO":3113909,"NOME":"Carmo da Cachoeira","UF":"MG","ID_UF":31,"REGIAO":"Sudeste","MESOREGIAO":"50547,7525137405","MICROREGIA":"VARGINHA","LATITUDE":-21.461,"LONGITUDE":-45.224,"SEDE":"Y","area":5.0547,"x":-45,"y":0,"x1":-4.519,"y1":-2.145}},{"type":"Polygon","arcs":[[-522,-598,747,748,749,750,751,752,753,754,-571,-379]],"properties":{"GEOCODIGO":3109402,"NOME":"Buritizeiro","UF":"MG","ID_UF":31,"REGIAO":"Sudeste","MESOREGIAO":"722188,838433515","MICROREGIA":"PIRAPORA","LATITUDE":-17.351,"LONGITUDE":-44.962,"SEDE":"Y","area":7.2218,"x":-45,"y":0,"x1":-4.519,"y1":-1.728}},{"type":"Polygon","arcs":[[755,756,757,-699]],"properties":{"GEOCODIGO":3140407,"NOME":"Marmelopolis","UF":"MG","ID_UF":31,"REGIAO":"Sudeste","MESOREGIAO":"10713,7969560155","MICROREGIA":"ITAJUBA","LATITUDE":-22.449,"LONGITUDE":-45.165,"SEDE":"Y","area":1.0713,"x":-45,"y":0,"x1":-4.517,"y1":-2.246}},{"type":"Polygon","arcs":[[-733,758,759,760,761,762,-713,-743]],"properties":{"GEOCODIGO":3114105,"NOME":"Carmo de Minas","UF":"MG","ID_UF":31,"REGIAO":"Sudeste","MESOREGIAO":"32235,8930917946","MICROREGIA":"SAO LOURENCO","LATITUDE":-22.122,"LONGITUDE":-45.129,"SEDE":"Y","area":3.2235,"x":-45,"y":0,"x1":-4.516,"y1":-2.209}},{"type":"Polygon","arcs":[[763,764,765,766,767,768,-705]],"properties":{"GEOCODIGO":3135209,"NOME":"Januaria","UF":"MG","ID_UF":31,"REGIAO":"Sudeste","MESOREGIAO":"668502,668390915","MICROREGIA":"JANUARIA","LATITUDE":-15.488,"LONGITUDE":-44.362,"SEDE":"Y","area":6.685,"x":-45,"y":0,"x1":-4.484,"y1":-1.532}},{"type":"Polygon","arcs":[[-616,-685,769,770,771,-720,-645]],"properties":{"GEOCODIGO":3140506,"NOME":"Martinho Campos","UF":"MG","ID_UF":31,"REGIAO":"Sudeste","MESOREGIAO":"106010,897111136","MICROREGIA":"BOM DESPACHO","LATITUDE":-19.332,"LONGITUDE":-45.237,"SEDE":"Y","area":1.0601,"x":-45,"y":0,"x1":-4.519,"y1":-1.941}},{"type":"Polygon","arcs":[[-714,-763,772,773,-695]],"properties":{"GEOCODIGO":3122801,"NOME":"Dom Vicoso","UF":"MG","ID_UF":31,"REGIAO":"Sudeste","MESOREGIAO":"11345,6099900308","MICROREGIA":"ITAJUBA","LATITUDE":-22.254,"LONGITUDE":-45.161,"SEDE":"Y","area":1.1345,"x":-45,"y":0,"x1":-4.514,"y1":-2.222}},{"type":"Polygon","arcs":[[774,775,-592,-730]],"properties":{"GEOCODIGO":3148905,"NOME":"Pedra do Indaia","UF":"MG","ID_UF":31,"REGIAO":"Sudeste","MESOREGIAO":"34831,4357910734","MICROREGIA":"FORMIGA","LATITUDE":-20.258,"LONGITUDE":-45.209,"SEDE":"Y","area":3.4831,"x":-45,"y":0,"x1":-4.522,"y1":-2.028}},{"type":"Polygon","arcs":[[-696,-774,776,777,778,-756,-698]],"properties":{"GEOCODIGO":3171709,"NOME":"Virginia","UF":"MG","ID_UF":31,"REGIAO":"Sudeste","MESOREGIAO":"32596,1840451586","MICROREGIA":"ITAJUBA","LATITUDE":-22.333,"LONGITUDE":-45.092,"SEDE":"Y","area":3.2596,"x":-45,"y":0,"x1":-4.51,"y1":-2.234}},{"type":"Polygon","arcs":[[-736,779,780,-738]],"properties":{"GEOCODIGO":3111903,"NOME":"Cana Verde","UF":"MG","ID_UF":31,"REGIAO":"Sudeste","MESOREGIAO":"21216,120780413","MICROREGIA":"CAMPO BELO","LATITUDE":-21.021,"LONGITUDE":-45.182,"SEDE":"Y","area":2.1216,"x":-45,"y":0,"x1":-4.518,"y1":-2.103}},{"type":"Polygon","arcs":[[-776,781,782,783,784,785,-593]],"properties":{"GEOCODIGO":3133501,"NOME":"Itapecerica","UF":"MG","ID_UF":31,"REGIAO":"Sudeste","MESOREGIAO":"104119,249611369","MICROREGIA":"FORMIGA","LATITUDE":-20.473,"LONGITUDE":-45.126,"SEDE":"Y","area":1.0411,"x":-45,"y":0,"x1":-4.51,"y1":-2.045}},{"type":"Polygon","arcs":[[-742,-718,786,787,788,789,-759,-732]],"properties":{"GEOCODIGO":3117702,"NOME":"Conceicao do Rio Verde","UF":"MG","ID_UF":31,"REGIAO":"Sudeste","MESOREGIAO":"37057,8474696008","MICROREGIA":"SAO LOURENCO","LATITUDE":-21.881,"LONGITUDE":-45.085,"SEDE":"Y","area":3.7057,"x":-45,"y":0,"x1":-4.509,"y1":-2.189}},{"type":"Polygon","arcs":[[-786,790,-708]],"properties":{"GEOCODIGO":3110400,"NOME":"Camacho","UF":"MG","ID_UF":31,"REGIAO":"Sudeste","MESOREGIAO":"22161,1683204093","MICROREGIA":"FORMIGA","LATITUDE":-20.625,"LONGITUDE":-45.157,"SEDE":"Y","area":2.2161,"x":-45,"y":0,"x1":-4.513,"y1":-2.064}},{"type":"Polygon","arcs":[[-572,-755,791,792,793,-701]],"properties":{"GEOCODIGO":3169356,"NOME":"Tres Marias","UF":"MG","ID_UF":31,"REGIAO":"Sudeste","MESOREGIAO":"267108,732414619","MICROREGIA":"TRES MARIAS","LATITUDE":-18.206,"LONGITUDE":-45.242,"SEDE":"Y","area":2.671,"x":-45,"y":0,"x1":-4.506,"y1":-1.829}},{"type":"Polygon","arcs":[[-722,794,795,796,-726]],"properties":{"GEOCODIGO":3103900,"NOME":"Araujos","UF":"MG","ID_UF":31,"REGIAO":"Sudeste","MESOREGIAO":"24484,3833034114","MICROREGIA":"BOM DESPACHO","LATITUDE":-19.948,"LONGITUDE":-45.166,"SEDE":"Y","area":2.4484,"x":-45,"y":0,"x1":-4.518,"y1":-1.988}},{"type":"Polygon","arcs":[[-790,797,798,799,-760]],"properties":{"GEOCODIGO":3167806,"NOME":"Soledade de Minas","UF":"MG","ID_UF":31,"REGIAO":"Sudeste","MESOREGIAO":"19589,3317410137","MICROREGIA":"SAO LOURENCO","LATITUDE":-22.06,"LONGITUDE":-45.045,"SEDE":"Y","area":1.9589,"x":-45,"y":0,"x1":-4.502,"y1":-2.202}},{"type":"Polygon","arcs":[[-781,800,801,802,803,804,805,806,-739]],"properties":{"GEOCODIGO":3149903,"NOME":"Perdoes","UF":"MG","ID_UF":31,"REGIAO":"Sudeste","MESOREGIAO":"26829,3861765324","MICROREGIA":"CAMPO BELO","LATITUDE":-21.091,"LONGITUDE":-45.091,"SEDE":"Y","area":2.6829,"x":-45,"y":0,"x1":-4.506,"y1":-2.107}},{"type":"Polygon","arcs":[[-757,-779,807,808]],"properties":{"GEOCODIGO":3147600,"NOME":"Passa Quatro","UF":"MG","ID_UF":31,"REGIAO":"Sudeste","MESOREGIAO":"27685,6163634238","MICROREGIA":"SAO LOURENCO","LATITUDE":-22.39,"LONGITUDE":-44.967,"SEDE":"Y","area":2.7685,"x":-45,"y":0,"x1":-4.496,"y1":-2.24}},{"type":"Polygon","arcs":[[-807,809,-805,810,811,812,-744,-740]],"properties":{"GEOCODIGO":3138203,"NOME":"Lavras","UF":"MG","ID_UF":31,"REGIAO":"Sudeste","MESOREGIAO":"56297,8790295609","MICROREGIA":"LAVRAS","LATITUDE":-21.245,"LONGITUDE":-45,"SEDE":"Y","area":5.6297,"x":-45,"y":0,"x1":-4.503,"y1":-2.126}},{"type":"Polygon","arcs":[[-707,813,-664,-640]],"properties":{"GEOCODIGO":3150570,"NOME":"Pintopolis","UF":"MG","ID_UF":31,"REGIAO":"Sudeste","MESOREGIAO":"123814,027124607","MICROREGIA":"JANUARIA","LATITUDE":-16.059,"LONGITUDE":-45.156,"SEDE":"Y","area":1.2381,"x":-45,"y":0,"x1":-4.524,"y1":-1.605}},{"type":"Polygon","arcs":[[-800,814,815,-761]],"properties":{"GEOCODIGO":3163706,"NOME":"Sao Lourenco","UF":"MG","ID_UF":31,"REGIAO":"Sudeste","MESOREGIAO":"5781,5860180417","MICROREGIA":"SAO LOURENCO","LATITUDE":-22.116,"LONGITUDE":-45.054,"SEDE":"Y","area":5.7815,"x":-45,"y":0,"x1":-4.503,"y1":-2.211}},{"type":"Polygon","arcs":[[-816,816,817,-777,-773,-762]],"properties":{"GEOCODIGO":3164902,"NOME":"Sao Sebastiao do Rio Verde","UF":"MG","ID_UF":31,"REGIAO":"Sudeste","MESOREGIAO":"9160,45164942197","MICROREGIA":"SAO LOURENCO","LATITUDE":-22.218,"LONGITUDE":-44.976,"SEDE":"Y","area":9.1604,"x":-45,"y":0,"x1":-4.502,"y1":-2.221}},{"type":"Polygon","arcs":[[-747,818,819,-716]],"properties":{"GEOCODIGO":3160801,"NOME":"Sao Bento Abade","UF":"MG","ID_UF":31,"REGIAO":"Sudeste","MESOREGIAO":"8029,14995824817","MICROREGIA":"VARGINHA","LATITUDE":-21.582,"LONGITUDE":-45.076,"SEDE":"Y","area":8.0291,"x":-45,"y":0,"x1":-4.507,"y1":-2.156}},{"type":"Polygon","arcs":[[-810,-806]],"properties":{"GEOCODIGO":3154705,"NOME":"Ribeirao Vermelho","UF":"MG","ID_UF":31,"REGIAO":"Sudeste","MESOREGIAO":"4901,01201522658","MICROREGIA":"LAVRAS","LATITUDE":-21.191,"LONGITUDE":-45.062,"SEDE":"Y","area":4.901,"x":-45,"y":0,"x1":-4.507,"y1":-2.114}},{"type":"Polygon","arcs":[[-710,820,821,-801,-780,-735]],"properties":{"GEOCODIGO":3158805,"NOME":"Santana do Jacare","UF":"MG","ID_UF":31,"REGIAO":"Sudeste","MESOREGIAO":"10688,1039817023","MICROREGIA":"CAMPO BELO","LATITUDE":-20.898,"LONGITUDE":-45.131,"SEDE":"Y","area":1.0688,"x":-45,"y":0,"x1":-4.506,"y1":-2.088}},{"type":"Polygon","arcs":[[-815,-799,822,823,824,825,-817]],"properties":{"GEOCODIGO":3152600,"NOME":"Pouso Alto","UF":"MG","ID_UF":31,"REGIAO":"Sudeste","MESOREGIAO":"26027,4850001564","MICROREGIA":"SAO LOURENCO","LATITUDE":-22.194,"LONGITUDE":-44.973,"SEDE":"Y","area":2.6027,"x":-45,"y":0,"x1":-4.493,"y1":-2.217}},{"type":"Polygon","arcs":[[-794,826,827,828,829,-702]],"properties":{"GEOCODIGO":3125705,"NOME":"Felixlandia","UF":"MG","ID_UF":31,"REGIAO":"Sudeste","MESOREGIAO":"155184,64296516","MICROREGIA":"CURVELO","LATITUDE":-18.758,"LONGITUDE":-44.899,"SEDE":"Y","area":1.5518,"x":-45,"y":0,"x1":-4.495,"y1":-1.87}},{"type":"Polygon","arcs":[[-820,830,831,832,-787,-717]],"properties":{"GEOCODIGO":3165206,"NOME":"Sao Thome das Letras","UF":"MG","ID_UF":31,"REGIAO":"Sudeste","MESOREGIAO":"36949,0475629418","MICROREGIA":"VARGINHA","LATITUDE":-21.722,"LONGITUDE":-44.985,"SEDE":"Y","area":3.6949,"x":-45,"y":0,"x1":-4.496,"y1":-2.173}},{"type":"Polygon","arcs":[[-813,833,834,835,-745]],"properties":{"GEOCODIGO":3130804,"NOME":"Ingai","UF":"MG","ID_UF":31,"REGIAO":"Sudeste","MESOREGIAO":"30394,3909112148","MICROREGIA":"LAVRAS","LATITUDE":-21.401,"LONGITUDE":-44.917,"SEDE":"Y","area":3.0394,"x":-45,"y":0,"x1":-4.492,"y1":-2.141}},{"type":"Polygon","arcs":[[836,-782,-775,-729]],"properties":{"GEOCODIGO":3164605,"NOME":"Sao Sebastiao do Oeste","UF":"MG","ID_UF":31,"REGIAO":"Sudeste","MESOREGIAO":"40415,0652878365","MICROREGIA":"DIVINOPOLIS","LATITUDE":-20.276,"LONGITUDE":-45.005,"SEDE":"Y","area":4.0415,"x":-45,"y":0,"x1":-4.504,"y1":-2.025}},{"type":"Polygon","arcs":[[-818,-826,837,838,-808,-778]],"properties":{"GEOCODIGO":3133105,"NOME":"Itanhandu","UF":"MG","ID_UF":31,"REGIAO":"Sudeste","MESOREGIAO":"14296,7651849451","MICROREGIA":"SAO LOURENCO","LATITUDE":-22.296,"LONGITUDE":-44.935,"SEDE":"Y","area":1.4296,"x":-45,"y":0,"x1":-4.492,"y1":-2.231}},{"type":"Polygon","arcs":[[-746,-836,839,840,841,-831,-819]],"properties":{"GEOCODIGO":3138708,"NOME":"Luminarias","UF":"MG","ID_UF":31,"REGIAO":"Sudeste","MESOREGIAO":"49893,3455296925","MICROREGIA":"LAVRAS","LATITUDE":-21.511,"LONGITUDE":-44.903,"SEDE":"Y","area":4.9893,"x":-45,"y":0,"x1":-4.492,"y1":-2.153}},{"type":"Polygon","arcs":[[842,843,-727,-797]],"properties":{"GEOCODIGO":3149705,"NOME":"Perdigao","UF":"MG","ID_UF":31,"REGIAO":"Sudeste","MESOREGIAO":"24969,8581706364","MICROREGIA":"DIVINOPOLIS","LATITUDE":-19.953,"LONGITUDE":-45.084,"SEDE":"Y","area":2.4969,"x":-45,"y":0,"x1":-4.505,"y1":-1.993}},{"type":"Polygon","arcs":[[-822,844,845,846,-802]],"properties":{"GEOCODIGO":3159902,"NOME":"Santo Antonio do Amparo","UF":"MG","ID_UF":31,"REGIAO":"Sudeste","MESOREGIAO":"49168,1224344218","MICROREGIA":"OLIVEIRA","LATITUDE":-20.946,"LONGITUDE":-44.919,"SEDE":"Y","area":4.9168,"x":-45,"y":0,"x1":-4.494,"y1":-2.091}},{"type":"Polygon","arcs":[[-791,-785,847,848,-845,-821,-709]],"properties":{"GEOCODIGO":3161205,"NOME":"Sao Francisco de Paula","UF":"MG","ID_UF":31,"REGIAO":"Sudeste","MESOREGIAO":"31690,3775241393","MICROREGIA":"OLIVEIRA","LATITUDE":-20.71,"LONGITUDE":-44.985,"SEDE":"Y","area":3.169,"x":-45,"y":0,"x1":-4.499,"y1":-2.071}},{"type":"Polygon","arcs":[[-844,849,850,851,852,-837,-728]],"properties":{"GEOCODIGO":3122306,"NOME":"Divinopolis","UF":"MG","ID_UF":31,"REGIAO":"Sudeste","MESOREGIAO":"70849,9450307302","MICROREGIA":"DIVINOPOLIS","LATITUDE":-20.139,"LONGITUDE":-44.884,"SEDE":"Y","area":7.0849,"x":-45,"y":0,"x1":-4.493,"y1":-2.012}},{"type":"Polygon","arcs":[[-703,-830,853,854,855,-770,-684]],"properties":{"GEOCODIGO":3152006,"NOME":"Pompeu","UF":"MG","ID_UF":31,"REGIAO":"Sudeste","MESOREGIAO":"255635,394782944","MICROREGIA":"TRES MARIAS","LATITUDE":-19.224,"LONGITUDE":-44.935,"SEDE":"Y","area":2.5563,"x":-45,"y":0,"x1":-4.492,"y1":-1.913}},{"type":"Polygon","arcs":[[-772,856,857,858,-795,-721]],"properties":{"GEOCODIGO":3138302,"NOME":"Leandro Ferreira","UF":"MG","ID_UF":31,"REGIAO":"Sudeste","MESOREGIAO":"35391,5830020066","MICROREGIA":"BOM DESPACHO","LATITUDE":-19.718,"LONGITUDE":-45.025,"SEDE":"Y","area":3.5391,"x":-45,"y":0,"x1":-4.504,"y1":-1.967}},{"type":"Polygon","arcs":[[859,-823,-798,-789]],"properties":{"GEOCODIGO":3115508,"NOME":"Caxambu","UF":"MG","ID_UF":31,"REGIAO":"Sudeste","MESOREGIAO":"9986,32207393508","MICROREGIA":"SAO LOURENCO","LATITUDE":-21.977,"LONGITUDE":-44.933,"SEDE":"Y","area":9.9863,"x":-45,"y":0,"x1":-4.494,"y1":-2.197}},{"type":"Polygon","arcs":[[-796,-859,860,861,-850,-843]],"properties":{"GEOCODIGO":3145208,"NOME":"Nova Serrana","UF":"MG","ID_UF":31,"REGIAO":"Sudeste","MESOREGIAO":"28398,6159941168","MICROREGIA":"DIVINOPOLIS","LATITUDE":-19.876,"LONGITUDE":-44.984,"SEDE":"Y","area":2.8398,"x":-45,"y":0,"x1":-4.497,"y1":-1.985}},{"type":"Polygon","arcs":[[-788,-833,862,863,864,865,-824,-860]],"properties":{"GEOCODIGO":3104908,"NOME":"Baependi","UF":"MG","ID_UF":31,"REGIAO":"Sudeste","MESOREGIAO":"74987,6698149197","MICROREGIA":"SAO LOURENCO","LATITUDE":-21.959,"LONGITUDE":-44.89,"SEDE":"Y","area":7.4987,"x":-45,"y":0,"x1":-4.482,"y1":-2.201}},{"type":"Polygon","arcs":[[-804,866,867,868,-811]],"properties":{"GEOCODIGO":3130408,"NOME":"Ijaci","UF":"MG","ID_UF":31,"REGIAO":"Sudeste","MESOREGIAO":"10583,1630063985","MICROREGIA":"LAVRAS","LATITUDE":-21.17,"LONGITUDE":-44.925,"SEDE":"Y","area":1.0583,"x":-45,"y":0,"x1":-4.493,"y1":-2.117}},{"type":"Polygon","arcs":[[869,870,871,-765]],"properties":{"GEOCODIGO":3108255,"NOME":"Bonito de Minas","UF":"MG","ID_UF":31,"REGIAO":"Sudeste","MESOREGIAO":"389725,015641743","MICROREGIA":"JANUARIA","LATITUDE":-15.323,"LONGITUDE":-44.754,"SEDE":"Y","area":3.8972,"x":-45,"y":0,"x1":-4.489,"y1":-1.499}},{"type":"Polygon","arcs":[[872,873,874,-848,-784]],"properties":{"GEOCODIGO":3114006,"NOME":"Carmo da Mata","UF":"MG","ID_UF":31,"REGIAO":"Sudeste","MESOREGIAO":"35616,4409665843","MICROREGIA":"OLIVEIRA","LATITUDE":-20.558,"LONGITUDE":-44.871,"SEDE":"Y","area":3.5616,"x":-45,"y":0,"x1":-4.489,"y1":-2.055}},{"type":"Polygon","arcs":[[-769,875,876,877,878,879,-665,-814,-706]],"properties":{"GEOCODIGO":3161106,"NOME":"Sao Francisco","UF":"MG","ID_UF":31,"REGIAO":"Sudeste","MESOREGIAO":"329821,908916154","MICROREGIA":"JANUARIA","LATITUDE":-15.949,"LONGITUDE":-44.864,"SEDE":"Y","area":3.2982,"x":-45,"y":0,"x1":-4.486,"y1":-1.589}},{"type":"Polygon","arcs":[[880,881,882,883,-867,-803,-847]],"properties":{"GEOCODIGO":3108008,"NOME":"Bom Sucesso","UF":"MG","ID_UF":31,"REGIAO":"Sudeste","MESOREGIAO":"70578,9567130733","MICROREGIA":"OLIVEIRA","LATITUDE":-21.033,"LONGITUDE":-44.758,"SEDE":"Y","area":7.0578,"x":-45,"y":0,"x1":-4.478,"y1":-2.102}},{"type":"Polygon","arcs":[[-825,-866,884,885,886,-838]],"properties":{"GEOCODIGO":3133006,"NOME":"Itamonte","UF":"MG","ID_UF":31,"REGIAO":"Sudeste","MESOREGIAO":"43088,1632885857","MICROREGIA":"SAO LOURENCO","LATITUDE":-22.284,"LONGITUDE":-44.87,"SEDE":"Y","area":4.3088,"x":-45,"y":0,"x1":-4.475,"y1":-2.228}},{"type":"Polygon","arcs":[[887,888,889,890,891,892,-792,-754]],"properties":{"GEOCODIGO":3138104,"NOME":"Lassance","UF":"MG","ID_UF":31,"REGIAO":"Sudeste","MESOREGIAO":"320995,795628139","MICROREGIA":"PIRAPORA","LATITUDE":-17.887,"LONGITUDE":-44.578,"SEDE":"Y","area":3.2099,"x":-45,"y":0,"x1":-4.469,"y1":-1.788}},{"type":"Polygon","arcs":[[-842,893,894,895,-863,-832]],"properties":{"GEOCODIGO":3120805,"NOME":"Cruzilia","UF":"MG","ID_UF":31,"REGIAO":"Sudeste","MESOREGIAO":"52329,094027457","MICROREGIA":"ANDRELANDIA","LATITUDE":-21.839,"LONGITUDE":-44.808,"SEDE":"Y","area":5.2329,"x":-45,"y":0,"x1":-4.479,"y1":-2.173}},{"type":"Polygon","arcs":[[-869,896,897,-834,-812]],"properties":{"GEOCODIGO":3134301,"NOME":"Itumirim","UF":"MG","ID_UF":31,"REGIAO":"Sudeste","MESOREGIAO":"23373,0663668034","MICROREGIA":"LAVRAS","LATITUDE":-21.317,"LONGITUDE":-44.871,"SEDE":"Y","area":2.3373,"x":-45,"y":0,"x1":-4.482,"y1":-2.129}},{"type":"Polygon","arcs":[[-856,898,899,900,901,-857,-771]],"properties":{"GEOCODIGO":3151404,"NOME":"Pitangui","UF":"MG","ID_UF":31,"REGIAO":"Sudeste","MESOREGIAO":"56786,9771149691","MICROREGIA":"PARA DE MINAS","LATITUDE":-19.683,"LONGITUDE":-44.89,"SEDE":"Y","area":5.6786,"x":-45,"y":0,"x1":-4.488,"y1":-1.958}},{"type":"Polygon","arcs":[[-875,902,903,904,-881,-846,-849]],"properties":{"GEOCODIGO":3145604,"NOME":"Oliveira","UF":"MG","ID_UF":31,"REGIAO":"Sudeste","MESOREGIAO":"89547,0281500828","MICROREGIA":"OLIVEIRA","LATITUDE":-20.696,"LONGITUDE":-44.827,"SEDE":"Y","area":8.9547,"x":-45,"y":0,"x1":-4.473,"y1":-2.074}},{"type":"Polygon","arcs":[[-858,-902,905,906,907,908,-861]],"properties":{"GEOCODIGO":3117603,"NOME":"Conceicao do Para","UF":"MG","ID_UF":31,"REGIAO":"Sudeste","MESOREGIAO":"24945,0829775276","MICROREGIA":"DIVINOPOLIS","LATITUDE":-19.753,"LONGITUDE":-44.897,"SEDE":"Y","area":2.4945,"x":-45,"y":0,"x1":-4.487,"y1":-1.978}},{"type":"Polygon","arcs":[[909,910,-897,-868,-884]],"properties":{"GEOCODIGO":3130002,"NOME":"Ibituruna","UF":"MG","ID_UF":31,"REGIAO":"Sudeste","MESOREGIAO":"15840,9504101903","MICROREGIA":"OLIVEIRA","LATITUDE":-21.153,"LONGITUDE":-44.748,"SEDE":"Y","area":1.584,"x":-45,"y":0,"x1":-4.478,"y1":-2.116}},{"type":"Polygon","arcs":[[911,912,913,914,-748,-597,-668]],"properties":{"GEOCODIGO":3152131,"NOME":"Ponto Chique","UF":"MG","ID_UF":31,"REGIAO":"Sudeste","MESOREGIAO":"60226,9634792041","MICROREGIA":"MONTES CLAROS","LATITUDE":-16.631,"LONGITUDE":-45.066,"SEDE":"Y","area":6.0226,"x":-45,"y":0,"x1":-4.497,"y1":-1.66}},{"type":"Polygon","arcs":[[-853,915,916,917,-873,-783]],"properties":{"GEOCODIGO":3116605,"NOME":"Claudio","UF":"MG","ID_UF":31,"REGIAO":"Sudeste","MESOREGIAO":"63169,4464652134","MICROREGIA":"DIVINOPOLIS","LATITUDE":-20.443,"LONGITUDE":-44.766,"SEDE":"Y","area":6.3169,"x":-45,"y":0,"x1":-4.477,"y1":-2.039}},{"type":"Polygon","arcs":[[918,-751,919,920,921,-888,-753]],"properties":{"GEOCODIGO":3170800,"NOME":"Varzea da Palma","UF":"MG","ID_UF":31,"REGIAO":"Sudeste","MESOREGIAO":"219492,534181943","MICROREGIA":"PIRAPORA","LATITUDE":-17.598,"LONGITUDE":-44.731,"SEDE":"Y","area":2.1949,"x":-45,"y":0,"x1":-4.472,"y1":-1.749}},{"type":"Polygon","arcs":[[-862,-909,922,923,-851]],"properties":{"GEOCODIGO":3161809,"NOME":"Sao Goncalo do Para","UF":"MG","ID_UF":31,"REGIAO":"Sudeste","MESOREGIAO":"26491,2806397238","MICROREGIA":"DIVINOPOLIS","LATITUDE":-19.983,"LONGITUDE":-44.859,"SEDE":"Y","area":2.6491,"x":-45,"y":0,"x1":-4.482,"y1":-1.998}},{"type":"Polygon","arcs":[[924,925,-885,-865]],"properties":{"GEOCODIGO":3101300,"NOME":"Alagoa","UF":"MG","ID_UF":31,"REGIAO":"Sudeste","MESOREGIAO":"16276,4486401579","MICROREGIA":"SAO LOURENCO","LATITUDE":-22.171,"LONGITUDE":-44.642,"SEDE":"Y","area":1.6276,"x":-45,"y":0,"x1":-4.466,"y1":-2.218}},{"type":"Polygon","arcs":[[-898,-911,926,927,-840,-835]],"properties":{"GEOCODIGO":3134509,"NOME":"Itutinga","UF":"MG","ID_UF":31,"REGIAO":"Sudeste","MESOREGIAO":"37266,4417751214","MICROREGIA":"LAVRAS","LATITUDE":-21.298,"LONGITUDE":-44.658,"SEDE":"Y","area":3.7266,"x":-45,"y":0,"x1":-4.471,"y1":-2.135}},{"type":"Polygon","arcs":[[-928,928,929,930,931,932,-894,-841]],"properties":{"GEOCODIGO":3114600,"NOME":"Carrancas","UF":"MG","ID_UF":31,"REGIAO":"Sudeste","MESOREGIAO":"72690,0223631206","MICROREGIA":"LAVRAS","LATITUDE":-21.488,"LONGITUDE":-44.643,"SEDE":"Y","area":7.269,"x":-45,"y":0,"x1":-4.461,"y1":-2.149}},{"type":"Polygon","arcs":[[-667,933,934,935,936,-912]],"properties":{"GEOCODIGO":3170008,"NOME":"Ubai","UF":"MG","ID_UF":31,"REGIAO":"Sudeste","MESOREGIAO":"82083,6659404513","MICROREGIA":"MONTES CLAROS","LATITUDE":-16.285,"LONGITUDE":-44.778,"SEDE":"Y","area":8.2083,"x":-45,"y":0,"x1":-4.484,"y1":-1.636}},{"type":"Polygon","arcs":[[-896,937,938,939,940,941,-925,-864]],"properties":{"GEOCODIGO":3101201,"NOME":"Aiuruoca","UF":"MG","ID_UF":31,"REGIAO":"Sudeste","MESOREGIAO":"64912,9745812957","MICROREGIA":"ANDRELANDIA","LATITUDE":-21.976,"LONGITUDE":-44.603,"SEDE":"Y","area":6.4912,"x":-45,"y":0,"x1":-4.464,"y1":-2.195}},{"type":"Polygon","arcs":[[-880,942,-934,-666]],"properties":{"GEOCODIGO":3130051,"NOME":"Icarai de Minas","UF":"MG","ID_UF":31,"REGIAO":"Sudeste","MESOREGIAO":"61435,9621133359","MICROREGIA":"JANUARIA","LATITUDE":-16.217,"LONGITUDE":-44.906,"SEDE":"Y","area":6.1435,"x":-45,"y":0,"x1":-4.491,"y1":-1.622}},{"type":"Polygon","arcs":[[-924,943,944,945,946,-916,-852]],"properties":{"GEOCODIGO":3114204,"NOME":"Carmo do Cajuru","UF":"MG","ID_UF":31,"REGIAO":"Sudeste","MESOREGIAO":"45439,4976739953","MICROREGIA":"DIVINOPOLIS","LATITUDE":-20.184,"LONGITUDE":-44.771,"SEDE":"Y","area":4.5439,"x":-45,"y":0,"x1":-4.47,"y1":-2.019}},{"type":"Polygon","arcs":[[-752,-919]],"properties":{"GEOCODIGO":3151206,"NOME":"Pirapora","UF":"MG","ID_UF":31,"REGIAO":"Sudeste","MESOREGIAO":"57480,9200505362","MICROREGIA":"PIRAPORA","LATITUDE":-17.345,"LONGITUDE":-44.942,"SEDE":"Y","area":5.748,"x":-45,"y":0,"x1":-4.486,"y1":-1.739}},{"type":"Polygon","arcs":[[-855,947,948,949,950,-899]],"properties":{"GEOCODIGO":3146909,"NOME":"Papagaios","UF":"MG","ID_UF":31,"REGIAO":"Sudeste","MESOREGIAO":"55149,3728080352","MICROREGIA":"SETE LAGOAS","LATITUDE":-19.449,"LONGITUDE":-44.748,"SEDE":"Y","area":5.5149,"x":-45,"y":0,"x1":-4.469,"y1":-1.937}},{"type":"Polygon","arcs":[[-915,951,952,-749]],"properties":{"GEOCODIGO":3129608,"NOME":"Ibiai","UF":"MG","ID_UF":31,"REGIAO":"Sudeste","MESOREGIAO":"86832,8795331546","MICROREGIA":"PIRAPORA","LATITUDE":-16.861,"LONGITUDE":-44.914,"SEDE":"Y","area":8.6832,"x":-45,"y":0,"x1":-4.479,"y1":-1.682}},{"type":"Polygon","arcs":[[-901,953,954,955,956,-906]],"properties":{"GEOCODIGO":3145802,"NOME":"Onca de Pitangui","UF":"MG","ID_UF":31,"REGIAO":"Sudeste","MESOREGIAO":"24662,0439289747","MICROREGIA":"PARA DE MINAS","LATITUDE":-19.73,"LONGITUDE":-44.807,"SEDE":"Y","area":2.4662,"x":-45,"y":0,"x1":-4.473,"y1":-1.97}},{"type":"Polygon","arcs":[[-886,-926,-942,957,958,959,960]],"properties":{"GEOCODIGO":3107208,"NOME":"Bocaina de Minas","UF":"MG","ID_UF":31,"REGIAO":"Sudeste","MESOREGIAO":"50131,9802708554","MICROREGIA":"ANDRELANDIA","LATITUDE":-22.168,"LONGITUDE":-44.395,"SEDE":"Y","area":5.0131,"x":-44,"y":0,"x1":-4.448,"y1":-2.221}},{"type":"Polygon","arcs":[[-908,961,962,-944,-923]],"properties":{"GEOCODIGO":3130200,"NOME":"Igaratinga","UF":"MG","ID_UF":31,"REGIAO":"Sudeste","MESOREGIAO":"21938,4447577062","MICROREGIA":"DIVINOPOLIS","LATITUDE":-19.955,"LONGITUDE":-44.709,"SEDE":"Y","area":2.1938,"x":-45,"y":0,"x1":-4.471,"y1":-1.995}},{"type":"Polygon","arcs":[[-918,963,964,965,-903,-874]],"properties":{"GEOCODIGO":3114501,"NOME":"Carmopolis de Minas","UF":"MG","ID_UF":31,"REGIAO":"Sudeste","MESOREGIAO":"40000,2340443492","MICROREGIA":"OLIVEIRA","LATITUDE":-20.541,"LONGITUDE":-44.635,"SEDE":"Y","area":4,"x":-45,"y":0,"x1":-4.464,"y1":-2.056}},{"type":"Polygon","arcs":[[-933,966,967,-938,-895]],"properties":{"GEOCODIGO":3141900,"NOME":"Minduri","UF":"MG","ID_UF":31,"REGIAO":"Sudeste","MESOREGIAO":"22023,6318707008","MICROREGIA":"ANDRELANDIA","LATITUDE":-21.682,"LONGITUDE":-44.604,"SEDE":"Y","area":2.2023,"x":-45,"y":0,"x1":-4.461,"y1":-2.167}},{"type":"Polygon","arcs":[[-910,-883,968,969,970,-929,-927]],"properties":{"GEOCODIGO":3144508,"NOME":"Nazareno","UF":"MG","ID_UF":31,"REGIAO":"Sudeste","MESOREGIAO":"32330,0182198777","MICROREGIA":"SAO JOAO DEL REI","LATITUDE":-21.216,"LONGITUDE":-44.611,"SEDE":"Y","area":3.233,"x":-45,"y":0,"x1":-4.461,"y1":-2.12}},{"type":"Polygon","arcs":[[-937,971,972,973,-913]],"properties":{"GEOCODIGO":3111150,"NOME":"Campo Azul","UF":"MG","ID_UF":31,"REGIAO":"Sudeste","MESOREGIAO":"50713,4443386188","MICROREGIA":"MONTES CLAROS","LATITUDE":-16.504,"LONGITUDE":-44.811,"SEDE":"Y","area":5.0713,"x":-45,"y":0,"x1":-4.476,"y1":-1.65}},{"type":"Polygon","arcs":[[-893,974,975,976,977,-827,-793]],"properties":{"GEOCODIGO":3119104,"NOME":"Corinto","UF":"MG","ID_UF":31,"REGIAO":"Sudeste","MESOREGIAO":"252495,098042387","MICROREGIA":"CURVELO","LATITUDE":-18.381,"LONGITUDE":-44.456,"SEDE":"Y","area":2.5249,"x":-45,"y":0,"x1":-4.461,"y1":-1.833}},{"type":"Polygon","arcs":[[-957,978,979,980,981,982,-962,-907]],"properties":{"GEOCODIGO":3147105,"NOME":"Para de Minas","UF":"MG","ID_UF":31,"REGIAO":"Sudeste","MESOREGIAO":"55099,4497258544","MICROREGIA":"PARA DE MINAS","LATITUDE":-19.86,"LONGITUDE":-44.608,"SEDE":"Y","area":5.5099,"x":-45,"y":0,"x1":-4.46,"y1":-1.983}},{"type":"Polygon","arcs":[[983,984,-954,-900,-951]],"properties":{"GEOCODIGO":3139706,"NOME":"Maravilhas","UF":"MG","ID_UF":31,"REGIAO":"Sudeste","MESOREGIAO":"26060,487138489","MICROREGIA":"SETE LAGOAS","LATITUDE":-19.516,"LONGITUDE":-44.676,"SEDE":"Y","area":2.606,"x":-45,"y":0,"x1":-4.467,"y1":-1.95}},{"type":"Polygon","arcs":[[-905,985,986,987,-969,-882]],"properties":{"GEOCODIGO":3165008,"NOME":"Sao Tiago","UF":"MG","ID_UF":31,"REGIAO":"Sudeste","MESOREGIAO":"57301,5358439105","MICROREGIA":"SAO JOAO DEL REI","LATITUDE":-20.913,"LONGITUDE":-44.509,"SEDE":"Y","area":5.7301,"x":-45,"y":0,"x1":-4.456,"y1":-2.093}},{"type":"Polygon","arcs":[[-968,988,989,990,-939]],"properties":{"GEOCODIGO":3167004,"NOME":"Serranos","UF":"MG","ID_UF":31,"REGIAO":"Sudeste","MESOREGIAO":"21232,8465475143","MICROREGIA":"ANDRELANDIA","LATITUDE":-21.89,"LONGITUDE":-44.51,"SEDE":"Y","area":2.1232,"x":-45,"y":0,"x1":-4.453,"y1":-2.183}},{"type":"Polygon","arcs":[[-978,991,-828]],"properties":{"GEOCODIGO":3143609,"NOME":"Morro da Garca","UF":"MG","ID_UF":31,"REGIAO":"Sudeste","MESOREGIAO":"41348,927864164","MICROREGIA":"CURVELO","LATITUDE":-18.547,"LONGITUDE":-44.603,"SEDE":"Y","area":4.1348,"x":-45,"y":0,"x1":-4.463,"y1":-1.862}},