iata,city,state,latitude,longitude,cod_meso,meso,cod_micro,micro,saldo_data_fixa,output_data_fixa,input_data_fixa,rate_ue,output_ue,input_ue
3100104,Abadia dos Dourados,MG,-18.485556,-47.403057,3105,Triângulo Mineiro/Alto Paranaíba,31019,Patrocínio,-209,587,378,-219,601,382
3100203,Abaeté,MG,-19.16,-45.445835,3106,Central Mineira,31024,Três Marias,-165,1496,1331,-412,1921,1509
3100302,Abre Campo,MG,-20.301111,-42.477501,3112,Zona da Mata,31061,Manhuaçu,-258,1193,935,-594,1633,1039
3100401,Acaiaca,MG,-20.362501,-43.144726,3112,Zona da Mata,31060,Ponte Nova,12,264,276,-162,472,310
3100500,Açucena,MG,-19.073057,-42.546387,3108,Vale do Rio Doce,31039,Ipatinga,-738,1049,311,-764,1163,399
3100609,Água Boa,MG,-17.996111,-42.388889,3108,Vale do Rio Doce,31036,Peçanha,-1281,1708,427,-1619,2085,466
3100708,Água Comprida,MG,-20.056389,-48.108887,3105,Triângulo Mineiro/Alto Paranaíba,31022,Uberaba,87,54,141,123,30,153
3100807,Aguanil,MG,-20.942499,-45.39278,3109,Oeste de Minas,31045,Campo Belo,152,116,268,134,184,318
3100906,Águas Formosas,MG,-17.082224,-40.935833,3104,Vale do Mucuri,31016,Nanuque,-419,1354,935,-348,1447,1099
3101003,Águas Vermelhas,MG,-15.747223,-41.459999,3102,Norte de Minas,31005,Salinas,-213,456,243,-224,504,280
3101102,Aimorés,MG,-19.495834,-41.063889,3108,Vale do Rio Doce,31041,Aimorés,-100,950,850,-136,1112,976
3101201,Aiuruoca,MG,-21.975555,-44.603054,3110,Sul/Sudoeste de Minas,31055,Andrelândia,-107,422,315,-130,494,364
3101300,Alagoa,MG,-22.170555,-44.641945,3110,Sul/Sudoeste de Minas,31054,São Lourenço,-94,161,67,-221,303,82
3101409,Albertina,MG,-22.200834,-46.615833,3110,Sul/Sudoeste de Minas,31051,Poços de Caldas,66,23,89,80,30,110
3101508,Além Paraíba,MG,-21.887777,-42.704445,3112,Zona da Mata,31066,Cataguases,-436,1012,576,-397,1096,699
3101607,Alfenas,MG,-21.429167,-45.947224,3110,Sul/Sudoeste de Minas,31049,Alfenas,922,2668,3590,925,3110,4035
3101631,Alfredo Vasconcelos,MG,-21.145277,-43.776943,3111,Campo das Vertentes,31059,Barbacena,330,130,460,289,209,498
3101706,Almenara,MG,-16.183611,-40.694447,3103,Jequitinhonha,31014,Almenara,-1099,3054,1955,-1160,3447,2287
3101805,Alpercata,MG,-18.974167,-41.97028,3108,Vale do Rio Doce,31037,Governador Valadares,341,364,705,294,471,765
3101904,Alpinópolis,MG,-20.863611,-46.388058,3110,Sul/Sudoeste de Minas,31047,Passos,163,571,734,48,756,804
3102001,Alterosa,MG,-21.249166,-46.143059,3110,Sul/Sudoeste de Minas,31049,Alfenas,138,452,590,55,601,656
3102050,Alto Caparaó,MG,-20.433332,-41.868332,3112,Zona da Mata,31061,Manhuaçu,150,485,635,196,553,749
3153509,Alto Jequitibá,MG,-20.423889,-41.966389,3112,Zona da Mata,31061,Manhuaçu,-479,656,177,-497,713,216
3102100,Alto Rio Doce,MG,-21.025833,-43.411392,3112,Zona da Mata,31062,Viçosa,-430,496,66,-540,628,88
3102209,Alvarenga,MG,-19.417221,-41.728611,3108,Vale do Rio Doce,31041,Aimorés,-677,1193,516,-818,1492,674
3102308,Alvinópolis,MG,-20.106667,-43.048889,3107,Metropolitana de Belo Horizonte,31031,Itabira,-105,172,67,-128,213,85
3102407,Alvorada de Minas,MG,-18.736111,-43.365276,3107,Metropolitana de Belo Horizonte,31028,Conceição do Mato Dentro,-217,400,183,-215,418,203
3102506,Amparo do Serra,MG,-20.507223,-42.802498,3112,Zona da Mata,31062,Viçosa,135,795,930,93,923,1016
3102605,Andradas,MG,-22.068056,-46.569164,3110,Sul/Sudoeste de Minas,31051,Poços de Caldas,-259,558,299,-357,673,316
3102803,Andrelândia,MG,-21.739723,-44.309166,3110,Sul/Sudoeste de Minas,31055,Andrelândia,-47,449,402,-60,564,504
3102852,Angelândia,MG,-17.602222,-42.162502,3103,Jequitinhonha,31011,Capelinha,55,374,429,93,469,562
3102902,Antônio Carlos,MG,-21.318056,-43.746666,3111,Campo das Vertentes,31059,Barbacena,1,590,591,-65,803,738
3103009,Antônio Dias,MG,-19.652777,-42.872219,3108,Vale do Rio Doce,31039,Ipatinga,-341,739,398,-323,804,481
3103108,Antônio Prado de Minas,MG,-21.016111,-42.109444,3112,Zona da Mata,31063,Muriaé,-40,107,67,-7,124,117
3103207,Araçaí,MG,-19.19861,-44.248055,3107,Metropolitana de Belo Horizonte,31027,Sete Lagoas,-4,317,313,-62,408,346
3103306,Aracitaba,MG,-21.342501,-43.37833,3112,Zona da Mata,31065,Juiz de Fora,44,34,78,15,67,82
3103405,Araçuaí,MG,-16.849722,-42.070278,3103,Jequitinhonha,31012,Araçuaí,-441,1346,905,-708,1714,1006
3103504,Araguari,MG,-18.647223,-48.187222,3105,Triângulo Mineiro/Alto Paranaíba,31018,Uberlândia,84,2751,2835,230,3153,3383
3103603,Arantina,MG,-21.91111,-44.255833,3110,Sul/Sudoeste de Minas,31055,Andrelândia,14,68,82,3,84,87
3103702,Araponga,MG,-20.666666,-42.520832,3112,Zona da Mata,31062,Viçosa,-59,344,285,-95,395,300
3103751,Araporã,MG,-18.43611,-49.185001,3105,Triângulo Mineiro/Alto Paranaíba,31018,Uberlândia,167,105,272,141,146,287
3103801,Arapuá,MG,-19.033888,-46.155556,3105,Triângulo Mineiro/Alto Paranaíba,31020,Patos de Minas,-40,218,178,-63,254,191
3103900,Araújos,MG,-19.948055,-45.165558,3106,Central Mineira,31026,Bom Despacho,757,225,982,756,331,1087
3104007,Araxá,MG,-19.593334,-46.940556,3105,Triângulo Mineiro/Alto Paranaíba,31023,Araxá,-347,3755,3408,-533,4722,4189
3104106,Arceburgo,MG,-21.364166,-46.940002,3110,Sul/Sudoeste de Minas,31048,São Sebastião do Paraíso,68,148,216,112,137,249
3104205,Arcos,MG,-20.281944,-45.539444,3109,Oeste de Minas,31044,Formiga,527,1411,1938,721,1860,2581
3104304,Areado,MG,-21.358612,-46.145557,3110,Sul/Sudoeste de Minas,31049,Alfenas,311,471,782,236,577,813
3104403,Argirita,MG,-21.610001,-42.836109,3112,Zona da Mata,31066,Cataguases,7,182,189,-22,223,201
3104452,Aricanduva,MG,-17.867222,-42.556942,3103,Jequitinhonha,31011,Capelinha,149,187,336,189,169,358
3104502,Arinos,MG,-15.916945,-46.105553,3101,Noroeste de Minas,31001,Unaí,18,880,898,203,880,1083
3104601,Astolfo Dutra,MG,-21.315277,-42.862221,3112,Zona da Mata,31064,Ubá,51,528,579,35,662,697
3104700,Ataléia,MG,-18.043612,-41.109997,3104,Vale do Mucuri,31015,Teófilo Otoni,-375,791,416,-510,990,480
3104809,Augusto de Lima,MG,-18.109167,-44.266945,3106,Central Mineira,31025,Curvelo,-630,820,190,-500,743,243
3104908,Baependi,MG,-21.958889,-44.890003,3110,Sul/Sudoeste de Minas,31054,São Lourenço,-201,532,331,-244,652,408
3105004,Baldim,MG,-19.288332,-43.956944,3107,Metropolitana de Belo Horizonte,31027,Sete Lagoas,61,501,562,-10,694,684
3105103,Bambuí,MG,-20.00639,-45.976944,3109,Oeste de Minas,31042,Piuí,454,1064,1518,500,1215,1715
3105202,Bandeira,MG,-15.884722,-40.559444,3103,Jequitinhonha,31014,Almenara,-207,340,133,-234,375,141
3105301,Bandeira do Sul,MG,-21.728056,-46.385834,3110,Sul/Sudoeste de Minas,31051,Poços de Caldas,61,374,435,89,387,476
3105400,Barão de Cocais,MG,-19.945833,-43.487221,3107,Metropolitana de Belo Horizonte,31031,Itabira,1048,1214,2262,973,1435,2408
3105509,Barão de Monte Alto,MG,-21.245001,-42.237499,3112,Zona da Mata,31063,Muriaé,-183,258,75,-234,321,87
3105608,Barbacena,MG,-21.225834,-43.773609,3111,Campo das Vertentes,31059,Barbacena,-798,4872,4074,-757,5434,4677
3105707,Barra Longa,MG,-20.282778,-43.041111,3112,Zona da Mata,31060,Ponte Nova,-343,467,124,-414,563,149
3105905,Barroso,MG,-21.186943,-43.975834,3111,Campo das Vertentes,31059,Barbacena,-521,921,400,-357,871,514
3106002,Bela Vista de Minas,MG,-19.830278,-43.09111,3107,Metropolitana de Belo Horizonte,31031,Itabira,139,440,579,71,552,623
3106101,Belmiro Braga,MG,-21.94861,-43.415001,3112,Zona da Mata,31065,Juiz de Fora,-200,335,135,-153,304,151
3106200,Belo Horizonte,MG,-19.920834,-43.937778,3107,Metropolitana de Belo Horizonte,31030,Belo Horizonte,-88236,169803,81567,-91048,188261,97213
3106309,Belo Oriente,MG,-19.220001,-42.483612,3108,Vale do Rio Doce,31039,Ipatinga,602,1112,1714,478,1389,1867
3106408,Belo Vale,MG,-20.407778,-44.024445,3107,Metropolitana de Belo Horizonte,31032,Itaguara,9,369,378,-42,484,442
3106507,Berilo,MG,-16.951668,-42.465557,3103,Jequitinhonha,31011,Capelinha,-403,505,102,-390,535,145
3106655,Berizal,MG,-15.613334,-41.744999,3102,Norte de Minas,31005,Salinas,-111,249,138,-49,218,169
3106606,Bertópolis,MG,-17.063055,-40.574444,3104,Vale do Mucuri,31016,Nanuque,-49,156,107,-24,170,146
3106705,Betim,MG,-19.967779,-44.198334,3107,Metropolitana de Belo Horizonte,31030,Belo Horizonte,17295,14628,31923,21125,15274,36399
3106804,Bias Fortes,MG,-21.606112,-43.756943,3112,Zona da Mata,31065,Juiz de Fora,-110,244,134,-154,298,144
3106903,Bicas,MG,-21.725279,-43.059444,3112,Zona da Mata,31065,Juiz de Fora,-183,872,689,-523,1262,739
3107000,Biquinhas,MG,-18.782778,-45.502224,3106,Central Mineira,31024,Três Marias,-121,258,137,-90,236,146
3107109,Boa Esperança,MG,-21.09,-45.565834,3110,Sul/Sudoeste de Minas,31050,Varginha,-1404,2383,979,-1410,2622,1212
3107208,Bocaina de Minas,MG,-22.1675,-44.394726,3110,Sul/Sudoeste de Minas,31055,Andrelândia,-160,188,28,-118,153,35
3107307,Bocaiúva,MG,-17.107779,-43.814999,3102,Norte de Minas,31009,Bocaiúva,-1316,2638,1322,-1657,3408,1751
3107406,Bom Despacho,MG,-19.736389,-45.252224,3106,Central Mineira,31026,Bom Despacho,144,2435,2579,-302,3290,2988
3107505,Bom Jardim de Minas,MG,-21.947222,-44.191113,3110,Sul/Sudoeste de Minas,31055,Andrelândia,-161,319,158,-187,350,163
3107604,Bom Jesus da Penha,MG,-21.016945,-46.522499,3110,Sul/Sudoeste de Minas,31047,Passos,46,215,261,31,305,336
3107703,Bom Jesus do Amparo,MG,-19.703611,-43.47361,3107,Metropolitana de Belo Horizonte,31031,Itabira,59,335,394,21,424,445
3107802,Bom Jesus do Galho,MG,-19.82889,-42.316109,3108,Vale do Rio Doce,31040,Caratinga,71,1100,1171,-93,1460,1367
3107901,Bom Repouso,MG,-22.471111,-46145,3110,Sul/Sudoeste de Minas,31052,Pouso Alegre,-68,333,265,-103,407,304
3108008,Bom Sucesso,MG,-21.033054,-44.758057,3109,Oeste de Minas,31046,Oliveira,-964,1374,410,-997,1495,498
3108107,Bonfim,MG,-20.326668,-44.238613,3107,Metropolitana de Belo Horizonte,31032,Itaguara,209,229,438,26,454,480
3108206,Bonfinópolis de Minas,MG,-16.567501,-45.990002,3101,Noroeste de Minas,31001,Unaí,-406,699,293,-474,817,343
3108255,Bonito de Minas,MG,-15.323334,-44.754444,3102,Norte de Minas,31003,Januária,109,226,335,104,292,396
3108305,Borda da Mata,MG,-22.274166,-46.165279,3110,Sul/Sudoeste de Minas,31052,Pouso Alegre,17,528,545,-76,732,656
3108404,Botelhos,MG,-21.633333,-46395,3110,Sul/Sudoeste de Minas,31051,Poços de Caldas,68,436,504,-110,641,531
3108503,Botumirim,MG,-16.872223,-43.010834,3102,Norte de Minas,31008,Grão Mogol,-277,434,157,-291,476,185
3108701,Brás Pires,MG,-20.920555,-43.242222,3112,Zona da Mata,31062,Viçosa,74,848,922,65,1031,1096
3108552,Brasilândia de Minas,MG,-17.009722,-46.009445,3101,Noroeste de Minas,31002,Paracatu,-1178,2130,952,-1323,2506,1183
3108602,Brasília de Minas,MG,-16.20639,-44.433334,3102,Norte de Minas,31007,Montes Claros,-78,213,135,-145,294,149
3108909,Brasópolis,MG,-22.473612,-45.607498,3110,Sul/Sudoeste de Minas,31056,Itajubá,-189,337,148,-186,400,214
3108800,Braúnas,MG,-19.055832,-42.715557,3108,Vale do Rio Doce,31035,Guanhães,-546,804,258,-432,829,397
3109006,Brumadinho,MG,-20.143333,-44.199722,3107,Metropolitana de Belo Horizonte,31030,Belo Horizonte,1998,1641,3639,2326,1856,4182
3109105,Bueno Brandão,MG,-22.440832,-46.35083,3110,Sul/Sudoeste de Minas,31052,Pouso Alegre,-83,315,232,-163,421,258
3109204,Buenópolis,MG,-17.873333,-44.18,3106,Central Mineira,31025,Curvelo,-32,590,558,-223,987,764
3109253,Bugre,MG,-19.426111,-42.244446,3108,Vale do Rio Doce,31040,Caratinga,108,159,267,7,259,266
3109303,Buritis,MG,-15.617778,-46.423336,3101,Noroeste de Minas,31001,Unaí,268,762,1030,402,818,1220
3109402,Buritizeiro,MG,-17.351112,-44.962223,3102,Norte de Minas,31006,Pirapora,-744,1716,972,-539,1841,1302
3109451,Cabeceira Grande,MG,-16.029722,-47.090553,3101,Noroeste de Minas,31001,Unaí,301,64,365,328,74,402
3109501,Cabo Verde,MG,-21.471945,-46.396114,3110,Sul/Sudoeste de Minas,31048,São Sebastião do Paraíso,133,674,807,334,754,1088
3109600,Cachoeira da Prata,MG,-19.524721,-44.453613,3107,Metropolitana de Belo Horizonte,31027,Sete Lagoas,-307,375,68,-166,347,181
3109709,Cachoeira de Minas,MG,-22355,-45.778889,3110,Sul/Sudoeste de Minas,31053,Santa Rita do Sapucaí,103,407,510,105,530,635
3102704,Cachoeira de Pajeú,MG,-15.966111,-41.498055,3103,Jequitinhonha,31013,Pedra Azul,60,105,165,35,113,148
3109808,Cachoeira Dourada,MG,-18.514999,-49.501389,3105,Triângulo Mineiro/Alto Paranaíba,31017,Ituiutaba,361,756,1117,425,751,1176
3109907,Caetanópolis,MG,-19.295277,-44.418613,3107,Metropolitana de Belo Horizonte,31027,Sete Lagoas,-354,1943,1589,-530,2298,1768
3110004,Caeté,MG,-19.880001,-43.669724,3107,Metropolitana de Belo Horizonte,31030,Belo Horizonte,291,81,372,216,224,440
3110103,Caiana,MG,-20.695555,-41.925003,3112,Zona da Mata,31063,Muriaé,61,174,235,-20,258,238
3110202,Cajuri,MG,-20.790556,-42.796665,3112,Zona da Mata,31062,Viçosa,-44,785,741,-97,942,845
3110301,Caldas,MG,-21.923611,-46.386112,3110,Sul/Sudoeste de Minas,31051,Poços de Caldas,-295,375,80,-372,474,102
3110400,Camacho,MG,-20.625278,-45.15667,3109,Oeste de Minas,31044,Formiga,41,545,586,284,486,770
3110509,Camanducaia,MG,-22.755278,-46.144726,3110,Sul/Sudoeste de Minas,31052,Pouso Alegre,505,549,1054,726,694,1420
3110608,Cambuí,MG,-22.612223,-46.057499,3110,Sul/Sudoeste de Minas,31052,Pouso Alegre,-22,521,499,-91,614,523
3110707,Cambuquira,MG,-21.852222,-45.295834,3110,Sul/Sudoeste de Minas,31054,São Lourenço,-73,287,214,-85,303,218
3110806,Campanário,MG,-18.238611,-41.748333,3108,Vale do Rio Doce,31037,Governador Valadares,126,523,649,42,691,733
3110905,Campanha,MG,-21.836111,-45.400558,3110,Sul/Sudoeste de Minas,31050,Varginha,-411,1053,642,-479,1190,711
3111002,Campestre,MG,-21.711111,-46.246387,3110,Sul/Sudoeste de Minas,31051,Poços de Caldas,-743,1982,1239,-1057,2441,1384
3111101,Campina Verde,MG,-19.535555,-49.486389,3105,Triângulo Mineiro/Alto Paranaíba,31021,Frutal,-152,291,139,-154,319,165
3111150,Campo Azul,MG,-16.503611,-44.810555,3102,Norte de Minas,31007,Montes Claros,-664,1888,1224,-951,2431,1480
3111200,Campo Belo,MG,-20.897223,-45.277222,3109,Oeste de Minas,31045,Campo Belo,-280,474,194,-189,467,278
3111309,Campo do Meio,MG,-21.106667,-45.830276,3110,Sul/Sudoeste de Minas,31050,Varginha,412,441,853,504,467,971
3111408,Campo Florido,MG,-19.760555,-48.57222,3105,Triângulo Mineiro/Alto Paranaíba,31022,Uberaba,-578,1255,677,-744,1471,727
3111507,Campos Altos,MG,-19.69611,-46.171391,3105,Triângulo Mineiro/Alto Paranaíba,31023,Araxá,-380,1355,975,-30,1578,1548
3111606,Campos Gerais,MG,-21.235001,-45.75861,3110,Sul/Sudoeste de Minas,31050,Varginha,-385,613,228,-310,564,254
3111903,Cana Verde,MG,-21.020834,-45.181946,3109,Oeste de Minas,31045,Campo Belo,-229,845,616,-236,981,745
3111705,Canaã,MG,-20.685833,-42.61972,3112,Zona da Mata,31062,Viçosa,-116,317,201,-74,285,211
3111804,Canápolis,MG,-18725,-49.204445,3105,Triângulo Mineiro/Alto Paranaíba,31018,Uberlândia,75,657,732,263,579,842
3112000,Candeias,MG,-20.766945,-45.27639,3109,Oeste de Minas,31045,Campo Belo,189,148,337,183,150,333
3112059,Cantagalo,MG,-18.525833,-42.626942,3108,Vale do Rio Doce,31036,Peçanha,-162,473,311,-192,554,362
3112109,Caparaó,MG,-20.523056,-41.904446,3112,Zona da Mata,31061,Manhuaçu,-202,300,98,-318,454,136
3112208,Capela Nova,MG,-20.923056,-43.617775,3111,Campo das Vertentes,31059,Barbacena,-840,2853,2013,-916,3268,2352
3112307,Capelinha,MG,-17.691387,-42.515835,3103,Jequitinhonha,31011,Capelinha,48,155,203,93,142,235
3112406,Capetinga,MG,-20.616388,-47.053612,3110,Sul/Sudoeste de Minas,31047,Passos,527,333,860,465,425,890
3112505,Capim Branco,MG,-19.548889,-44.116665,3107,Metropolitana de Belo Horizonte,31027,Sete Lagoas,-714,1205,491,-913,1486,573
3112604,Capinópolis,MG,-18.681944,-49.569721,3105,Triângulo Mineiro/Alto Paranaíba,31017,Ituiutaba,94,267,361,167,222,389
3112653,Capitão Andrade,MG,-19.067501,-41.858055,3108,Vale do Rio Doce,31037,Governador Valadares,-418,1074,656,-785,1517,732
3112703,Capitão Enéas,MG,-16.324446,-43.710556,3102,Norte de Minas,31007,Montes Claros,319,342,661,297,424,721
3112802,Capitólio,MG,-20.615278,-46.049999,3110,Sul/Sudoeste de Minas,31047,Passos,-179,540,361,-330,726,396
3112901,Caputira,MG,-20.171944,-42.270554,3112,Zona da Mata,31061,Manhuaçu,-597,1074,477,-604,1326,722
3113008,Caraí,MG,-17.188889,-41.694725,3103,Jequitinhonha,31012,Araçuaí,-228,363,135,-271,411,140
3113107,Caranaíba,MG,-20.875834,-43.739166,3111,Campo das Vertentes,31059,Barbacena,26,899,925,-44,1084,1040
3113206,Carandaí,MG,-20.953611,-43.806389,3111,Campo das Vertentes,31059,Barbacena,-311,1607,1296,-312,1949,1637
3113305,Carangola,MG,-20.733055,-42.029446,3112,Zona da Mata,31063,Muriaé,-2113,6411,4298,-2823,8008,5185
3113404,Caratinga,MG,-19.789722,-42.139168,3108,Vale do Rio Doce,31040,Caratinga,-88,546,458,-77,545,468
3113503,Carbonita,MG,-17.526945,-43.015835,3103,Jequitinhonha,31011,Capelinha,-83,419,336,-88,457,369
3113602,Careaçu,MG,-22.043055,-45.699169,3110,Sul/Sudoeste de Minas,31053,Santa Rita do Sapucaí,-1054,1474,420,-1276,1813,537
3113701,Carlos Chagas,MG,-17.703056,-40.766388,3104,Vale do Mucuri,31016,Nanuque,-133,226,93,-118,249,131
3113800,Carmésia,MG,-19.08889,-43.14167,3108,Vale do Rio Doce,31035,Guanhães,-253,724,471,-302,967,665
3113909,Carmo da Cachoeira,MG,-21.460835,-45.22361,3110,Sul/Sudoeste de Minas,31050,Varginha,35,505,540,-229,818,589
3114006,Carmo da Mata,MG,-20.557777,-44.870552,3109,Oeste de Minas,31046,Oliveira,-264,653,389,-434,904,470
3114105,Carmo de Minas,MG,-22.122223,-45.129166,3110,Sul/Sudoeste de Minas,31054,São Lourenço,222,534,756,528,652,1180
3114204,Carmo do Cajuru,MG,-20.184166,-44.771111,3109,Oeste de Minas,31043,Divinópolis,-247,1417,1170,-392,1699,1307
3114303,Carmo do Paranaíba,MG,-19.000834,-46.316109,3105,Triângulo Mineiro/Alto Paranaíba,31020,Patos de Minas,-437,1009,572,-278,1039,761
3114402,Carmo do Rio Claro,MG,-20.971945,-46.118889,3110,Sul/Sudoeste de Minas,31049,Alfenas,670,527,1197,553,713,1266
3114501,Carmópolis de Minas,MG,-20.541388,-44.635002,3109,Oeste de Minas,31046,Oliveira,-10,288,278,-150,422,272
3114550,Carneirinho,MG,-19.697498,-50.688057,3105,Triângulo Mineiro/Alto Paranaíba,31021,Frutal,-66,281,215,-47,346,299
3114600,Carrancas,MG,-21.487501,-44.642502,3111,Campo das Vertentes,31057,Lavras,-4,198,194,-35,248,213
3114709,Carvalhópolis,MG,-21.777777,-45.84111,3110,Sul/Sudoeste de Minas,31049,Alfenas,-157,209,52,-119,206,87
3114808,Carvalhos,MG,-22.001112,-44.461391,3110,Sul/Sudoeste de Minas,31055,Andrelândia,-86,158,72,-108,184,76
3114907,Casa Grande,MG,-20.792778,-43.930279,3107,Metropolitana de Belo Horizonte,31034,Conselheiro Lafaiete,160,242,402,104,298,402
3115003,Cascalho Rico,MG,-18.576389,-47.87722,3105,Triângulo Mineiro/Alto Paranaíba,31018,Uberlândia,72,516,588,57,571,628
3115102,Cássia,MG,-20.583055,-46.921947,3110,Sul/Sudoeste de Minas,31047,Passos,0,147,147,-33,223,190
3115300,Cataguases,MG,-21.389166,-42.696667,3112,Zona da Mata,31066,Cataguases,-385,2130,1745,-228,2467,2239
3115359,Catas Altas,MG,-20.074722,-43.407501,3107,Metropolitana de Belo Horizonte,31031,Itabira,-252,571,319,-281,636,355
3115409,Catas Altas da Noruega,MG,-20.689999,-43.497501,3107,Metropolitana de Belo Horizonte,31034,Conselheiro Lafaiete,-128,254,126,-113,237,124
3115458,Catuji,MG,-17.299444,-41.516945,3104,Vale do Mucuri,31015,Teófilo Otoni,-491,773,282,-455,814,359
3115474,Catuti,MG,-15.358334,-42.96278,3102,Norte de Minas,31004,Janaúba,27,177,204,-1,240,239
3115508,Caxambu,MG,-21.977222,-44.932503,3110,Sul/Sudoeste de Minas,31054,São Lourenço,-777,1426,649,-880,1638,758
3115607,Cedro do Abaeté,MG,-19.148333,-45.711391,3106,Central Mineira,31024,Três Marias,-72,197,125,-93,259,166
3115706,Central de Minas,MG,-18.761944,-41.306389,3108,Vale do Rio Doce,31038,Mantena,-266,552,286,-302,638,336
3115805,Centralina,MG,-18.583889,-49.199444,3105,Triângulo Mineiro/Alto Paranaíba,31018,Uberlândia,-527,809,282,-567,913,346
3115904,Chácara,MG,-21.672222,-43.221668,3112,Zona da Mata,31065,Juiz de Fora,114,109,223,125,118,243
3116001,Chalé,MG,-20.043612,-41.687778,3112,Zona da Mata,31061,Manhuaçu,30,288,318,2,315,317
3116100,Chapada do Norte,MG,-17.086945,-42.535278,3103,Jequitinhonha,31011,Capelinha,-451,526,75,-492,585,93
3116159,Chapada Gaúcha,MG,-15.305555,-45.618332,3102,Norte de Minas,31003,Januária,381,422,803,610,490,1100
3116209,Chiador,MG,-22.002501,-43.057777,3112,Zona da Mata,31065,Juiz de Fora,-10,98,88,17,91,108
3116308,Cipotânea,MG,-20.905277,-43.365555,3112,Zona da Mata,31062,Viçosa,-401,536,135,-459,638,179
3116407,Claraval,MG,-20.39889,-47.266666,3110,Sul/Sudoeste de Minas,31047,Passos,18,109,127,99,59,158
3116506,Claro dos Poções,MG,-17.079723,-44.208611,3102,Norte de Minas,31007,Montes Claros,-221,577,356,-398,776,378
3116605,Cláudio,MG,-20.443333,-44.765835,3109,Oeste de Minas,31043,Divinópolis,240,802,1042,339,1155,1494
3116704,Coimbra,MG,-20.856667,-42.802776,3112,Zona da Mata,31062,Viçosa,31,415,446,74,450,524
3116803,Coluna,MG,-18.233889,-42.840275,3108,Vale do Rio Doce,31035,Guanhães,-251,612,361,-187,639,452
3116902,Comendador Gomes,MG,-19.698332,-49.080555,3105,Triângulo Mineiro/Alto Paranaíba,31021,Frutal,-2,280,278,44,243,287
3117009,Comercinho,MG,-16.29611,-41.793331,3103,Jequitinhonha,31013,Pedra Azul,-116,299,183,-120,336,216
3117108,Conceição da Aparecida,MG,-21.094168,-46.204445,3110,Sul/Sudoeste de Minas,31049,Alfenas,-30,426,396,64,457,521
3115201,Conceição da Barra de Minas,MG,-21.128889,-44.472221,3111,Campo das Vertentes,31058,São João Del Rei,-15,81,66,-22,107,85
3117306,Conceição das Alagoas,MG,-19.914722,-48.388336,3105,Triângulo Mineiro/Alto Paranaíba,31022,Uberaba,-18,1165,1147,66,1233,1299
3117207,Conceição das Pedras,MG,-22.16,-45.454723,3110,Sul/Sudoeste de Minas,31053,Santa Rita do Sapucaí,-221,534,313,-277,629,352
3117405,Conceição de Ipanema,MG,-19.928055,-41.69389,3108,Vale do Rio Doce,31041,Aimorés,-422,1184,762,-440,1414,974
3117504,Conceição do Mato Dentro,MG,-19.037222,-43.425003,3107,Metropolitana de Belo Horizonte,31028,Conceição do Mato Dentro,419,235,654,455,256,711
3117603,Conceição do Pará,MG,-19.753056,-44.896667,3109,Oeste de Minas,31043,Divinópolis,113,253,366,24,354,378
3117702,Conceição do Rio Verde,MG,-21.880833,-45.085278,3110,Sul/Sudoeste de Minas,31054,São Lourenço,148,280,428,90,411,501
3117801,Conceição dos Ouros,MG,-22.413055,-45.798054,3110,Sul/Sudoeste de Minas,31053,Santa Rita do Sapucaí,-71,189,118,-88,233,145
3117836,Cônego Marinho,MG,-15.294168,-44.418056,3102,Norte de Minas,31003,Januária,427,154,581,257,331,588
3117876,Confins,MG,-19.6325,-43.982777,3107,Metropolitana de Belo Horizonte,31030,Belo Horizonte,223,316,539,193,462,655
3117900,Congonhal,MG,-22.152777,-46.039444,3110,Sul/Sudoeste de Minas,31052,Pouso Alegre,263,2066,2329,491,2321,2812
3118007,Congonhas,MG,-20.499722,-43.857777,3107,Metropolitana de Belo Horizonte,31034,Conselheiro Lafaiete,-334,428,94,-435,535,100
3118106,Congonhas do Norte,MG,-18.807222,-43.681389,3107,Metropolitana de Belo Horizonte,31028,Conceição do Mato Dentro,-29,385,356,-89,488,399
3118205,Conquista,MG,-19.937222,-47.541668,3105,Triângulo Mineiro/Alto Paranaíba,31022,Uberaba,2586,2964,5550,2573,3753,6326
3118304,Conselheiro Lafaiete,MG,-20.660278,-43.78611,3107,Metropolitana de Belo Horizonte,31034,Conselheiro Lafaiete,46,1227,1273,-205,1810,1605
3118403,Conselheiro Pena,MG,-19.172222,-41.472221,3108,Vale do Rio Doce,31041,Aimorés,50,92,142,54,114,168
3118502,Consolação,MG,-22.551388,-45.921112,3110,Sul/Sudoeste de Minas,31056,Itajubá,15119,29580,44699,19877,32531,52408
3118601,Contagem,MG,-19.931665,-44.053612,3107,Metropolitana de Belo Horizonte,31030,Belo Horizonte,-289,775,486,-312,847,535
3118700,Coqueiral,MG,-21.189444,-45.440556,3110,Sul/Sudoeste de Minas,31050,Varginha,-1451,2369,918,-1845,3017,1172
3118809,Coração de Jesus,MG,-16.685276,-44.364998,3102,Norte de Minas,31007,Montes Claros,-188,879,691,-308,1108,800
3118908,Cordisburgo,MG,-19125,-44.320831,3107,Metropolitana de Belo Horizonte,31027,Sete Lagoas,37,231,268,11,251,262
3119005,Cordislândia,MG,-21.7925,-45.700832,3110,Sul/Sudoeste de Minas,31053,Santa Rita do Sapucaí,-1239,2386,1147,-1544,2965,1421
3119104,Corinto,MG,-18.380833,-44.45639,3106,Central Mineira,31025,Curvelo,-144,725,581,-126,811,685
3119203,Coroaci,MG,-18.621944,-42.285831,3108,Vale do Rio Doce,31037,Governador Valadares,-375,1607,1232,-653,2091,1438
3119302,Coromandel,MG,-18.473333,-47.200279,3105,Triângulo Mineiro/Alto Paranaíba,31019,Patrocínio,58,4973,5031,168,5968,6136
3119401,Coronel Fabriciano,MG,-19.51861,-42.628887,3108,Vale do Rio Doce,31039,Ipatinga,-377,586,209,-473,754,281
3119500,Coronel Murta,MG,-16.618889,-42.182224,3103,Jequitinhonha,31012,Araçuaí,-68,339,271,41,238,279
3119609,Coronel Pacheco,MG,-21.587778,-43.265556,3112,Zona da Mata,31065,Juiz de Fora,-2,131,129,2,155,157
3119708,Coronel Xavier Chaves,MG,-21.023611,-44.223057,3111,Campo das Vertentes,31058,São João Del Rei,8,219,227,-8,243,235
3119807,Córrego Danta,MG,-19.823612,-45.904446,3109,Oeste de Minas,31042,Piuí,-115,222,107,-131,253,122
3119906,Córrego do Bom Jesus,MG,-22.630278,-46.02,3110,Sul/Sudoeste de Minas,31052,Pouso Alegre,17,141,158,128,83,211
3119955,Córrego Fundo,MG,-20.449165,-45555,3109,Oeste de Minas,31044,Formiga,-288,492,204,-406,646,240
3120003,Córrego Novo,MG,-19.831945,-42.396389,3108,Vale do Rio Doce,31040,Caratinga,61,179,240,7,250,257
3120102,Couto de Magalhães de Minas,MG,-18.07139,-43.471111,3103,Jequitinhonha,31010,Diamantina,-163,417,254,-85,441,356
3120151,Crisólita,MG,-17.237223,-40.911945,3104,Vale do Mucuri,31016,Nanuque,382,367,749,408,441,849
3120201,Cristais,MG,-20.875555,-45.518612,3109,Oeste de Minas,31045,Campo Belo,-31,181,150,7,178,185
3120300,Cristália,MG,-16.800278,-42.862221,3102,Norte de Minas,31008,Grão Mogol,-47,331,284,9,279,288
3120409,Cristiano Otoni,MG,-20.832224,-43.805553,3107,Metropolitana de Belo Horizonte,31034,Conselheiro Lafaiete,-89,346,257,-210,492,282
3120508,Cristina,MG,-22.211945,-45.264168,3110,Sul/Sudoeste de Minas,31056,Itajubá,253,262,515,77,445,522
3120607,Crucilândia,MG,-20.383888,-44.336945,3107,Metropolitana de Belo Horizonte,31032,Itaguara,-145,371,226,-242,495,253
3120706,Cruzeiro da Fortaleza,MG,-18.945833,-46.673611,3105,Triângulo Mineiro/Alto Paranaíba,31019,Patrocínio,51,556,607,76,644,720
3120805,Cruzília,MG,-21.838612,-44.808334,3110,Sul/Sudoeste de Minas,31055,Andrelândia,170,174,344,220,127,347
3120839,Cuparaque,MG,-18.969444,-41.099167,3108,Vale do Rio Doce,31041,Aimorés,96,234,330,78,263,341
3120870,Curral de Dentro,MG,-15.9375,-41.844444,3102,Norte de Minas,31005,Salinas,-634,4114,3480,-802,4968,4166
3120904,Curvelo,MG,-18.75639,-44.430836,3106,Central Mineira,31025,Curvelo,-118,422,304,-134,445,311
3121001,Datas,MG,-18.445555,-43.655834,3103,Jequitinhonha,31010,Diamantina,-89,390,301,-132,401,269
3121100,Delfim Moreira,MG,-22.509167,-45.279999,3110,Sul/Sudoeste de Minas,31056,Itajubá,-26,230,204,-53,270,217
3121209,Delfinópolis,MG,-20.343889,-46.853886,3110,Sul/Sudoeste de Minas,31047,Passos,212,296,508,360,302,662
3121258,Delta,MG,-19.976667,-47.771111,3105,Triângulo Mineiro/Alto Paranaíba,31022,Uberaba,7,261,268,-3,259,256
3121308,Descoberto,MG,-21.459723,-42.967499,3112,Zona da Mata,31065,Juiz de Fora,-119,337,218,-68,387,319
3121407,Desterro de Entre Rios,MG,-20.66,-44.3325,3107,Metropolitana de Belo Horizonte,31034,Conselheiro Lafaiete,-85,187,102,-8,182,174
3121506,Desterro do Melo,MG,-21.147223,-43.517776,3111,Campo das Vertentes,31059,Barbacena,-2359,4183,1824,-2935,5324,2389
3121605,Diamantina,MG,-18.249445,-43.600277,3103,Jequitinhonha,31010,Diamantina,-251,415,164,-239,402,163
3121704,Diogo de Vasconcelos,MG,-20.487778,-43.198334,3107,Metropolitana de Belo Horizonte,31033,Ouro Preto,-108,762,654,-110,885,775
3121803,Dionísio,MG,-19.842779,-42.776665,3107,Metropolitana de Belo Horizonte,31031,Itabira,246,101,347,242,155,397
3121902,Divinésia,MG,-20.990278,-43.003887,3112,Zona da Mata,31064,Ubá,-679,1100,421,-472,1102,630
3122009,Divino,MG,-20.614445,-42.148613,3112,Zona da Mata,31063,Muriaé,258,166,424,317,200,517
3122108,Divino das Laranjeiras,MG,-18.777777,-41.479721,3108,Vale do Rio Doce,31037,Governador Valadares,166,464,630,142,523,665
3122207,Divinolândia de Minas,MG,-18.801111,-42.614445,3108,Vale do Rio Doce,31035,Guanhães,2167,7089,9256,2814,8651,11465
3122306,Divinópolis,MG,-20.138889,-44.883892,3109,Oeste de Minas,31043,Divinópolis,-96,341,245,33,240,273
3122355,Divisa Alegre,MG,-15.725555,-41.344997,3102,Norte de Minas,31005,Salinas,-234,433,199,-272,551,279
3122405,Divisa Nova,MG,-21.51111,-46.195835,3110,Sul/Sudoeste de Minas,31049,Alfenas,-183,493,310,-33,367,334
3122454,Divisópolis,MG,-15.725555,-41,3103,Jequitinhonha,31014,Almenara,50,186,236,-65,315,250
3122470,Dom Bosco,MG,-16.651943,-46.270832,3101,Noroeste de Minas,31001,Unaí,-569,855,286,-538,847,309
3122504,Dom Cavati,MG,-19.37389,-42.106388,3108,Vale do Rio Doce,31040,Caratinga,-149,307,158,-231,401,170
3122603,Dom Joaquim,MG,-18.967222,-43.255833,3107,Metropolitana de Belo Horizonte,31028,Conceição do Mato Dentro,-220,577,357,-254,680,426
3122702,Dom Silvério,MG,-20.16,-42.967777,3112,Zona da Mata,31060,Ponte Nova,-53,81,28,-53,109,56
3122801,Dom Viçoso,MG,-22.254444,-45.161114,3110,Sul/Sudoeste de Minas,31056,Itajubá,197,173,370,272,181,453
3122900,Dona Eusébia,MG,-21.316387,-42.810555,3112,Zona da Mata,31066,Cataguases,156,200,356,198,279,477
3123007,Dores de Campos,MG,-21.108889,-44.023056,3111,Campo das Vertentes,31058,São João Del Rei,-392,568,176,-317,590,273
3123106,Dores de Guanhães,MG,-19.058332,-42.929169,3108,Vale do Rio Doce,31035,Guanhães,-739,1455,716,-684,1597,913
3123205,Dores do Indaiá,MG,-19.463335,-45.601665,3106,Central Mineira,31026,Bom Despacho,-252,495,243,-430,690,260
3123304,Dores do Turvo,MG,-20.975555,-43.189167,3112,Zona da Mata,31064,Ubá,-165,250,85,-169,258,89
3123403,Doresópolis,MG,-20.286943,-45.903336,3109,Oeste de Minas,31042,Piuí,77,40,117,14,129,143
3123502,Douradoquara,MG,-18.431389,-47.608608,3105,Triângulo Mineiro/Alto Paranaíba,31019,Patrocínio,74,335,409,-29,518,489
3123528,Durandé,MG,-20.203335,-41.797779,3112,Zona da Mata,31061,Manhuaçu,156,530,686,106,674,780
3123601,Elói Mendes,MG,-21.610001,-45.565277,3110,Sul/Sudoeste de Minas,31050,Varginha,-303,732,429,-130,726,596
3123700,Engenheiro Caldas,MG,-19.219444,-42.046112,3108,Vale do Rio Doce,31037,Governador Valadares,-380,652,272,-273,615,342
3123809,Engenheiro Navarro,MG,-17.279722,-43.950001,3102,Norte de Minas,31009,Bocaiúva,98,310,408,-142,596,454
3123858,Entre Folhas,MG,-19.625278,-42.230556,3108,Vale do Rio Doce,31040,Caratinga,178,529,707,166,689,855
3123908,Entre Rios de Minas,MG,-20.670834,-44.065556,3107,Metropolitana de Belo Horizonte,31034,Conselheiro Lafaiete,-463,882,419,-563,1105,542
3124005,Ervália,MG,-20.84,-42.657223,3112,Zona da Mata,31062,Viçosa,6909,3111,10020,7779,3323,11102
3124104,Esmeraldas,MG,-19.762501,-44.313889,3107,Metropolitana de Belo Horizonte,31030,Belo Horizonte,591,829,1420,633,995,1628
3124203,Espera Feliz,MG,-20.650278,-41.907223,3112,Zona da Mata,31063,Muriaé,-479,828,349,-525,901,376
3124302,Espinosa,MG,-14.926111,-42.819164,3102,Norte de Minas,31004,Janaúba,-37,218,181,35,198,233
3124401,Espírito Santo do Dourado,MG,-22.046389,-45.950832,3110,Sul/Sudoeste de Minas,31052,Pouso Alegre,-235,391,156,-288,509,221
3124500,Estiva,MG,-22.462778,-46.017223,3110,Sul/Sudoeste de Minas,31052,Pouso Alegre,-9,87,78,-37,124,87
3124609,Estrela Dalva,MG,-21.741945,-42.461113,3112,Zona da Mata,31066,Cataguases,106,184,290,38,292,330
3124708,Estrela do Indaiá,MG,-19.522223,-45.787498,3106,Central Mineira,31026,Bom Despacho,325,385,710,249,567,816
3124807,Estrela do Sul,MG,-18.745556,-47.69278,3105,Triângulo Mineiro/Alto Paranaíba,31019,Patrocínio,-62,445,383,-25,510,485
3124906,Eugenópolis,MG,-21.098612,-42.186668,3112,Zona da Mata,31063,Muriaé,76,154,230,117,116,233
3125002,Ewbank da Câmara,MG,-21.551111,-43.509998,3112,Zona da Mata,31065,Juiz de Fora,948,393,1341,1017,426,1443
3125101,Extrema,MG,-22.854723,-46.318333,3110,Sul/Sudoeste de Minas,31052,Pouso Alegre,81,168,249,90,185,275
3125200,Fama,MG,-21.406389,-45.828609,3110,Sul/Sudoeste de Minas,31049,Alfenas,-16,208,192,24,210,234
3125309,Faria Lemos,MG,-20.808332,-42.02972,3112,Zona da Mata,31063,Muriaé,14,231,245,-32,301,269
3125408,Felício dos Santos,MG,-18.077223,-43.246944,3103,Jequitinhonha,31010,Diamantina,4,153,157,13,191,204
3125606,Felisburgo,MG,-16.638611,-40.761391,3103,Jequitinhonha,31014,Almenara,-296,512,216,-413,710,297
3125705,Felixlândia,MG,-18.758055,-44.898891,3106,Central Mineira,31025,Curvelo,22,855,877,158,1053,1211
3125804,Fernandes Tourinho,MG,-19.15361,-42.081944,3108,Vale do Rio Doce,31037,Governador Valadares,107,271,378,123,279,402
3125903,Ferros,MG,-19.231945,-43.023335,3107,Metropolitana de Belo Horizonte,31031,Itabira,-741,1081,340,-912,1310,398
3125952,Fervedouro,MG,-20.725555,-42.278889,3112,Zona da Mata,31063,Muriaé,-89,592,503,-35,658,623
3126000,Florestal,MG,-19.889444,-44.432503,3107,Metropolitana de Belo Horizonte,31029,Pará de Minas,565,275,840,363,532,895
3126109,Formiga,MG,-20.464445,-45.426392,3109,Oeste de Minas,31044,Formiga,145,1825,1970,-388,2567,2179
3126208,Formoso,MG,-14.946667,-46.231945,3101,Noroeste de Minas,31001,Unaí,-49,253,204,-185,460,275
3126307,Fortaleza de Minas,MG,-20.849167,-46.718056,3110,Sul/Sudoeste de Minas,31047,Passos,35,260,295,60,269,329
3126406,Fortuna de Minas,MG,-19.56111,-44.446945,3107,Metropolitana de Belo Horizonte,31027,Sete Lagoas,205,157,362,107,254,361
3126505,Francisco Badaró,MG,-16.9925,-42.351944,3103,Jequitinhonha,31011,Capelinha,-135,271,136,-223,353,130
3126604,Francisco Dumont,MG,-17.314999,-44.234165,3102,Norte de Minas,31009,Bocaiúva,39,310,349,132,270,402
3126703,Francisco Sá,MG,-16.475834,-43.488335,3102,Norte de Minas,31007,Montes Claros,-200,1536,1336,-438,1959,1521
3126752,Franciscópolis,MG,-17.959723,-42.00861,3104,Vale do Mucuri,31015,Teófilo Otoni,-28,171,143,-110,290,180
3126802,Frei Gaspar,MG,-18.066111,-41.429447,3104,Vale do Mucuri,31015,Teófilo Otoni,-218,353,135,-230,413,183
3126901,Frei Inocêncio,MG,-18.574446,-41.90889,3108,Vale do Rio Doce,31037,Governador Valadares,331,558,889,300,662,962
3126950,Frei Lagonegro,MG,-18.167778,-42.766109,3108,Vale do Rio Doce,31036,Peçanha,110,128,238,177,90,267
3127008,Fronteira,MG,-20.267778,-49.199444,3105,Triângulo Mineiro/Alto Paranaíba,31021,Frutal,193,269,462,274,223,497
3127057,Fronteira dos Vales,MG,-16.891388,-40.924725,3104,Vale do Mucuri,31016,Nanuque,-110,194,84,-273,373,100
3127073,Fruta de Leite,MG,-16.131111,-42.533054,3102,Norte de Minas,31005,Salinas,-50,163,113,-135,270,135
3127107,Frutal,MG,-20.024721,-48.940556,3105,Triângulo Mineiro/Alto Paranaíba,31021,Frutal,-87,1462,1375,-831,2269,1438
3127206,Funilândia,MG,-19.3675,-44.05611,3107,Metropolitana de Belo Horizonte,31027,Sete Lagoas,197,308,505,225,310,535
3127305,Galiléia,MG,-18.999445,-41.537498,3108,Vale do Rio Doce,31037,Governador Valadares,-142,662,520,-310,900,590
3127339,Gameleiras,MG,-15.082222,-43.123608,3102,Norte de Minas,31004,Janaúba,72,226,298,62,243,305
3127354,Glaucilândia,MG,-16.849722,-43.697224,3102,Norte de Minas,31007,Montes Claros,-59,199,140,-48,202,154
3127370,Goiabeira,MG,-18.982224,-41.2225,3108,Vale do Rio Doce,31041,Aimorés,-96,203,107,-22,186,164
3127388,Goianá,MG,-21.537222,-43.201668,3112,Zona da Mata,31065,Juiz de Fora,39,389,428,45,487,532
3127404,Gonçalves,MG,-22.658888,-45.855831,3110,Sul/Sudoeste de Minas,31052,Pouso Alegre,23,112,135,88,114,202
3127503,Gonzaga,MG,-18.822224,-42.479168,3108,Vale do Rio Doce,31035,Guanhães,-305,542,237,-303,614,311
3127602,Gouveia,MG,-18.454445,-43.740833,3103,Jequitinhonha,31010,Diamantina,-725,1360,635,-762,1507,745
3127701,Governador Valadares,MG,-18.851112,-41.949444,3108,Vale do Rio Doce,31037,Governador Valadares,-3653,12332,8679,-3616,14615,10999
3127800,Grão Mogol,MG,-16.559444,-42.889725,3102,Norte de Minas,31008,Grão Mogol,-342,973,631,-439,1223,784
3127909,Grupiara,MG,-18.494167,-47.722221,3105,Triângulo Mineiro/Alto Paranaíba,31019,Patrocínio,-34,108,74,-24,100,76
3128006,Guanhães,MG,-18775,-42.932503,3108,Vale do Rio Doce,31035,Guanhães,476,1955,2431,424,2324,2748
3128105,Guapé,MG,-20.761667,-45.9175,3110,Sul/Sudoeste de Minas,31050,Varginha,-216,760,544,-224,870,646
3128204,Guaraciaba,MG,-20.570835,-43.0075,3112,Zona da Mata,31060,Ponte Nova,-270,548,278,-383,692,309
3128253,Guaraciama,MG,-17.013889,-43.673058,3102,Norte de Minas,31009,Bocaiúva,129,141,270,174,116,290
3128303,Guaranésia,MG,-21.299166,-46.802498,3110,Sul/Sudoeste de Minas,31048,São Sebastião do Paraíso,50,612,662,34,712,746
3128402,Guarani,MG,-21.352222,-43.046944,3112,Zona da Mata,31064,Ubá,-156,494,338,-186,618,432
3128501,Guarará,MG,-21.731945,-43.037498,3112,Zona da Mata,31065,Juiz de Fora,103,114,217,133,122,255
3128600,Guarda-Mor,MG,-17.770834,-47.098331,3101,Noroeste de Minas,31002,Paracatu,380,302,682,342,404,746
3128709,Guaxupé,MG,-21.305277,-46.71278,3110,Sul/Sudoeste de Minas,31048,São Sebastião do Paraíso,-294,1338,1044,-232,1445,1213
3128808,Guidoval,MG,-21.151943,-42.796665,3112,Zona da Mata,31064,Ubá,-39,402,363,-137,508,371
3128907,Guimarânia,MG,-18.843889,-46.793056,3105,Triângulo Mineiro/Alto Paranaíba,31020,Patos de Minas,-266,679,413,-380,841,461
3129004,Guiricema,MG,-21.007778,-42.717777,3112,Zona da Mata,31064,Ubá,-236,502,266,-306,621,315
3129103,Gurinhatã,MG,-19.213335,-49.786388,3105,Triângulo Mineiro/Alto Paranaíba,31017,Ituiutaba,-169,711,542,-297,919,622
3129202,Heliodora,MG,-22.067223,-45.542221,3110,Sul/Sudoeste de Minas,31053,Santa Rita do Sapucaí,-140,360,220,-198,436,238
3129301,Iapu,MG,-19.436666,-42.217777,3108,Vale do Rio Doce,31040,Caratinga,-155,617,462,-324,872,548
3129400,Ibertioga,MG,-21.43,-43.963055,3111,Campo das Vertentes,31059,Barbacena,-103,322,219,-88,402,314
3129509,Ibiá,MG,-19.478334,-46.538887,3105,Triângulo Mineiro/Alto Paranaíba,31023,Araxá,-398,1224,826,-297,1452,1155
3129608,Ibiaí,MG,-16.861111,-44.914448,3102,Norte de Minas,31006,Pirapora,-124,590,466,-93,609,516
3129657,Ibiracatu,MG,-15.66361,-44.163891,3102,Norte de Minas,31007,Montes Claros,-91,208,117,-124,242,118
3129707,Ibiraci,MG,-20.462223,-47.122219,3110,Sul/Sudoeste de Minas,31047,Passos,221,220,441,123,299,422
3129806,Ibirité,MG,-20.021944,-44.058887,3107,Metropolitana de Belo Horizonte,31030,Belo Horizonte,10382,5431,15813,11814,5970,17784
3129905,Ibitiúra de Minas,MG,-22.060833,-46.440002,3110,Sul/Sudoeste de Minas,31051,Poços de Caldas,-40,273,233,-43,297,254
3130002,Ibituruna,MG,-21.1525,-44.74778,3109,Oeste de Minas,31046,Oliveira,-62,168,106,-59,165,106
3130051,Icaraí de Minas,MG,-16.217222,-44.906391,3102,Norte de Minas,31003,Januária,-21,237,216,-6,317,311
3130101,Igarapé,MG,-20.070278,-44.301666,3107,Metropolitana de Belo Horizonte,31030,Belo Horizonte,3403,1405,4808,3355,1700,5055
3130200,Igaratinga,MG,-19.955278,-44.709167,3109,Oeste de Minas,31043,Divinópolis,910,338,1248,992,352,1344
3130309,Iguatama,MG,-20.174444,-45.711391,3109,Oeste de Minas,31042,Piuí,-181,624,443,-182,722,540
3130408,Ijaci,MG,-21.17,-44.925278,3111,Campo das Vertentes,31057,Lavras,80,168,248,168,136,304
3130507,Ilicínea,MG,-20.935833,-45.832775,3110,Sul/Sudoeste de Minas,31050,Varginha,347,197,544,414,232,646
3130556,Imbé de Minas,MG,-19.597223,-41.970554,3108,Vale do Rio Doce,31040,Caratinga,-234,697,463,-171,680,509
3130606,Inconfidentes,MG,-22.316946,-46.327778,3110,Sul/Sudoeste de Minas,31051,Poços de Caldas,-96,360,264,-49,324,275
3130655,Indaiabira,MG,-15.491667,-42.197224,3102,Norte de Minas,31005,Salinas,-57,238,181,-97,323,226
3130705,Indianópolis,MG,-19.03861,-47.916946,3105,Triângulo Mineiro/Alto Paranaíba,31018,Uberlândia,-424,811,387,-44,561,517
3130804,Ingaí,MG,-21.401112,-44.917225,3111,Campo das Vertentes,31057,Lavras,105,131,236,88,172,260
3130903,Inhapim,MG,-19.549166,-42.119999,3108,Vale do Rio Doce,31040,Caratinga,-796,2299,1503,-1227,2891,1664
3131000,Inhaúma,MG,-19.491112,-44.389725,3107,Metropolitana de Belo Horizonte,31027,Sete Lagoas,115,466,581,61,586,647
3131109,Inimutaba,MG,-18.729168,-44.360554,3106,Central Mineira,31025,Curvelo,127,323,450,281,282,563
3131158,Ipaba,MG,-19.41361,-42.419445,3108,Vale do Rio Doce,31040,Caratinga,1170,536,1706,1292,596,1888
3131208,Ipanema,MG,-19.800833,-41.713055,3108,Vale do Rio Doce,31041,Aimorés,11,1143,1154,-197,1513,1316
3131307,Ipatinga,MG,-19.468334,-42.536667,3108,Vale do Rio Doce,31039,Ipatinga,-1509,15750,14241,-690,18006,17316
3131406,Ipiaçu,MG,-18.692221,-49.94278,3105,Triângulo Mineiro/Alto Paranaíba,31017,Ituiutaba,-96,244,148,-141,306,165
3131505,Ipuiúna,MG,-22.09889,-46.189724,3110,Sul/Sudoeste de Minas,31052,Pouso Alegre,-49,410,361,-112,481,369
3131604,Iraí de Minas,MG,-18.983889,-47.461391,3105,Triângulo Mineiro/Alto Paranaíba,31019,Patrocínio,80,463,543,192,403,595
3131703,Itabira,MG,-19.619167,-43.226944,3107,Metropolitana de Belo Horizonte,31031,Itabira,-1269,4504,3235,-1361,5454,4093
3131802,Itabirinha,MG,-18.566387,-41.233055,3108,Vale do Rio Doce,31038,Mantena,80,390,470,-198,724,526
3131901,Itabirito,MG,-20.253334,-43.801388,3107,Metropolitana de Belo Horizonte,31033,Ouro Preto,816,1809,2625,1123,2222,3345
3132008,Itacambira,MG,-17.064722,-43.308887,3102,Norte de Minas,31008,Grão Mogol,-243,422,179,-334,507,173
3132107,Itacarambi,MG,-15.102222,-44.091942,3102,Norte de Minas,31003,Januária,-151,699,548,-424,1090,666
3132206,Itaguara,MG,-20.392221,-44.487499,3107,Metropolitana de Belo Horizonte,31032,Itaguara,-72,730,658,-168,931,763
3132305,Itaipé,MG,-17.401943,-41.668613,3104,Vale do Mucuri,31015,Teófilo Otoni,-216,698,482,-236,792,556
3132404,Itajubá,MG,-22.425554,-45.452778,3110,Sul/Sudoeste de Minas,31056,Itajubá,447,3183,3630,700,3618,4318
3132503,Itamarandiba,MG,-17.857224,-42.858887,3103,Jequitinhonha,31011,Capelinha,-242,1351,1109,-494,1916,1422
3132602,Itamarati de Minas,MG,-21.415833,-42.817776,3112,Zona da Mata,31066,Cataguases,-137,353,216,-187,415,228
3132701,Itambacuri,MG,-18.031111,-41.685001,3108,Vale do Rio Doce,31037,Governador Valadares,-1185,1948,763,-1593,2498,905
3132800,Itambé do Mato Dentro,MG,-19.414444,-43.32111,3107,Metropolitana de Belo Horizonte,31028,Conceição do Mato Dentro,-97,124,27,-170,225,55
3132909,Itamogi,MG,-21.078056,-47.048332,3110,Sul/Sudoeste de Minas,31048,São Sebastião do Paraíso,-28,330,302,-91,412,321
3133006,Itamonte,MG,-22.283888,-44.869999,3110,Sul/Sudoeste de Minas,31054,São Lourenço,33,498,531,-79,639,560
3133105,Itanhandu,MG,-22.295834,-44.934723,3110,Sul/Sudoeste de Minas,31054,São Lourenço,446,365,811,403,421,824
3133204,Itanhomi,MG,-19.171944,-41.865276,3108,Vale do Rio Doce,31037,Governador Valadares,-528,1068,540,-724,1314,590
3133303,Itaobim,MG,-16.561666,-41.503334,3103,Jequitinhonha,31013,Pedra Azul,-602,1248,646,-510,1459,949
3133402,Itapagipe,MG,-19.908611,-49.381386,3105,Triângulo Mineiro/Alto Paranaíba,31021,Frutal,372,417,789,461,505,966
3133501,Itapecerica,MG,-20.4725,-45.125553,3109,Oeste de Minas,31044,Formiga,-473,1238,765,-439,1542,1103
3133600,Itapeva,MG,-22.768055,-46.220833,3110,Sul/Sudoeste de Minas,31052,Pouso Alegre,38,334,372,41,342,383
3133709,Itatiaiuçu,MG,-20.196667,-44.421112,3107,Metropolitana de Belo Horizonte,31032,Itaguara,655,446,1101,590,556,1146
3133758,Itaú de Minas,MG,-20.739445,-46.752224,3110,Sul/Sudoeste de Minas,31047,Passos,308,440,748,324,486,810
3133808,Itaúna,MG,-20.075279,-44.576389,3109,Oeste de Minas,31043,Divinópolis,1190,2198,3388,1182,2661,3843
3133907,Itaverava,MG,-20.678055,-43.609997,3107,Metropolitana de Belo Horizonte,31034,Conselheiro Lafaiete,-425,599,174,-441,649,208
3134004,Itinga,MG,-16.613056,-41.765278,3103,Jequitinhonha,31012,Araçuaí,-373,680,307,-603,942,339
3134103,Itueta,MG,-19.394167,-41.17028,3108,Vale do Rio Doce,31041,Aimorés,97,231,328,164,258,422
3134202,Ituiutaba,MG,-18.968889,-49465,3105,Triângulo Mineiro/Alto Paranaíba,31017,Ituiutaba,-960,4632,3672,-125,4872,4747
3134301,Itumirim,MG,-21.316946,-44.871109,3111,Campo das Vertentes,31057,Lavras,-45,202,157,-86,259,173
3134400,Iturama,MG,-19.728056,-50.195557,3105,Triângulo Mineiro/Alto Paranaíba,31021,Frutal,-422,1700,1278,-296,1885,1589
3134509,Itutinga,MG,-21.298056,-44.65778,3111,Campo das Vertentes,31057,Lavras,-282,399,117,-276,465,189
3134608,Jaboticatubas,MG,-19.513611,-43.744999,3107,Metropolitana de Belo Horizonte,31027,Sete Lagoas,970,840,1810,1129,985,2114
3134707,Jacinto,MG,-16.144444,-40.293331,3103,Jequitinhonha,31014,Almenara,-420,882,462,-500,1039,539
3134806,Jacuí,MG,-21.016666,-46.741112,3110,Sul/Sudoeste de Minas,31048,São Sebastião do Paraíso,-251,715,464,-235,742,507
3134905,Jacutinga,MG,-22.285555,-46.612221,3110,Sul/Sudoeste de Minas,31051,Poços de Caldas,276,284,560,210,443,653
3135001,Jaguaraçu,MG,-19.649166,-42.749722,3108,Vale do Rio Doce,31039,Ipatinga,222,162,384,218,238,456
3135050,Jaíba,MG,-15.338333,-43.674446,3102,Norte de Minas,31004,Janaúba,620,1983,2603,923,2033,2956
3135076,Jampruca,MG,-18.462778,-41.803886,3108,Vale do Rio Doce,31037,Governador Valadares,-119,303,184,-134,409,275
3135100,Janaúba,MG,-15.8025,-43.308887,3102,Norte de Minas,31004,Janaúba,-1973,4355,2382,-2241,5339,3098
3135209,Januária,MG,-15.488056,-44.361942,3102,Norte de Minas,31003,Januária,-2457,3630,1173,-2832,4461,1629
3135308,Japaraíba,MG,-20.141388,-45.503334,3106,Central Mineira,31026,Bom Despacho,330,106,436,382,114,496
3135357,Japonvar,MG,-15.994722,-44.27,3102,Norte de Minas,31007,Montes Claros,-237,480,243,-219,491,272
3135407,Jeceaba,MG,-20.535276,-43.983334,3107,Metropolitana de Belo Horizonte,31032,Itaguara,-289,421,132,-442,605,163
3135456,Jenipapo de Minas,MG,-17.082779,-42.258335,3103,Jequitinhonha,31011,Capelinha,196,141,337,158,205,363
3135506,Jequeri,MG,-20.455833,-42.665836,3112,Zona da Mata,31060,Ponte Nova,-306,670,364,-436,896,460
3135605,Jequitaí,MG,-17.235556,-44.445557,3102,Norte de Minas,31006,Pirapora,-163,625,462,-81,585,504
3135704,Jequitibá,MG,-19.235556,-44.027779,3107,Metropolitana de Belo Horizonte,31027,Sete Lagoas,11,506,517,30,556,586
3135803,Jequitinhonha,MG,-16.433887,-41.003334,3103,Jequitinhonha,31014,Almenara,-1129,2115,986,-1472,2799,1327
3135902,Jesuânia,MG,-21.997778,-45.291111,3110,Sul/Sudoeste de Minas,31054,São Lourenço,22,145,167,22,175,197
3136009,Joaíma,MG,-16.654167,-41.030556,3103,Jequitinhonha,31014,Almenara,-798,1368,570,-1076,1695,619
3136108,Joanésia,MG,-19.172222,-42.678612,3108,Vale do Rio Doce,31039,Ipatinga,-184,463,279,-207,490,283
3136207,João Monlevade,MG,-19.809999,-43.173611,3107,Metropolitana de Belo Horizonte,31031,Itabira,244,3763,4007,-531,5078,4547
3136306,João Pinheiro,MG,-17.7425,-46.172501,3101,Noroeste de Minas,31002,Paracatu,-599,2272,1673,-715,2790,2075
3136405,Joaquim Felício,MG,-17.7575,-44.172222,3106,Central Mineira,31025,Curvelo,-119,401,282,-353,655,302
3136504,Jordânia,MG,-15.900277,-40.178059,3103,Jequitinhonha,31014,Almenara,-419,672,253,-311,659,348
3136520,José Gonçalves de Minas,MG,-16.906944,-42.603611,3103,Jequitinhonha,31011,Capelinha,-105,270,165,-44,215,171
3136553,José Raydan,MG,-18.219444,-42.498611,3108,Vale do Rio Doce,31036,Peçanha,467,88,555,413,110,523
3136579,Josenópolis,MG,-16.547222,-42.515278,3102,Norte de Minas,31008,Grão Mogol,-68,153,85,-124,222,98
3136652,Juatuba,MG,-19.951944,-44.342777,3107,Metropolitana de Belo Horizonte,31030,Belo Horizonte,279,265,544,224,408,632
3136702,Juiz de Fora,MG,-21.764166,-43.350277,3112,Zona da Mata,31065,Juiz de Fora,2650,1038,3688,3176,993,4169
3136801,Juramento,MG,-16.848057,-43.586945,3102,Norte de Minas,31007,Montes Claros,4596,11176,15772,5782,12429,18211
3136900,Juruaia,MG,-21.252777,-46.576942,3110,Sul/Sudoeste de Minas,31048,São Sebastião do Paraíso,68,186,254,54,249,303
3136959,Juvenília,MG,-14.2625,-44.160278,3102,Norte de Minas,31003,Januária,176,293,469,187,327,514
3137007,Ladainha,MG,-17.632223,-41.737499,3104,Vale do Mucuri,31015,Teófilo Otoni,-27,122,95,-2,166,164
3137106,Lagamar,MG,-18.178333,-46.807499,3101,Noroeste de Minas,31002,Paracatu,-112,648,536,-263,840,577
3137205,Lagoa da Prata,MG,-20.022499,-45.54361,3106,Central Mineira,31026,Bom Despacho,-235,765,530,-365,924,559
3137304,Lagoa dos Patos,MG,-16.983334,-44.582222,3102,Norte de Minas,31006,Pirapora,1084,1055,2139,784,1622,2406
3137403,Lagoa Dourada,MG,-20.914444,-44.078331,3111,Campo das Vertentes,31058,São João Del Rei,-368,492,124,-365,506,141
3137502,Lagoa Formosa,MG,-18.77861,-46.407501,3105,Triângulo Mineiro/Alto Paranaíba,31020,Patos de Minas,-14,385,371,5,394,399
3137536,Lagoa Grande,MG,-17.835278,-46.514446,3101,Noroeste de Minas,31002,Paracatu,-90,1115,1025,-132,1363,1231
3137601,Lagoa Santa,MG,-19.627222,-43.889725,3107,Metropolitana de Belo Horizonte,31030,Belo Horizonte,271,502,773,352,488,840
3137700,Lajinha,MG,-20.151388,-41.622776,3112,Zona da Mata,31061,Manhuaçu,4943,1670,6613,5608,1975,7583
3137809,Lambari,MG,-21.975555,-45.350277,3110,Sul/Sudoeste de Minas,31054,São Lourenço,-179,1082,903,-193,1218,1025
3137908,Lamim,MG,-20.790277,-43.474167,3112,Zona da Mata,31062,Viçosa,-185,675,490,-158,849,691
3138005,Laranjal,MG,-21.374445,-42.476944,3112,Zona da Mata,31066,Cataguases,-255,400,145,-275,475,200
3138104,Lassance,MG,-17.886667,-44.577499,3102,Norte de Minas,31006,Pirapora,-171,392,221,-141,396,255
3138203,Lavras,MG,-21.245277,-44.999722,3111,Campo das Vertentes,31057,Lavras,42,500,542,114,487,601
3138302,Leandro Ferreira,MG,-19.718056,-45.025002,3106,Central Mineira,31026,Bom Despacho,1414,3625,5039,1202,4334,5536
3138351,Leme do Prado,MG,-17.083334,-42.692501,3103,Jequitinhonha,31011,Capelinha,54,191,245,67,231,298
3138401,Leopoldina,MG,-21.531944,-42.643059,3112,Zona da Mata,31066,Cataguases,-113,312,199,-49,255,206
3138500,Liberdade,MG,-22.028889,-44.319721,3110,Sul/Sudoeste de Minas,31055,Andrelândia,-740,1780,1040,-809,2163,1354
3138609,Lima Duarte,MG,-21.842501,-43.793056,3112,Zona da Mata,31065,Juiz de Fora,-6,124,118,13,145,158
3138625,Limeira do Oeste,MG,-19.551111,-50.580555,3105,Triângulo Mineiro/Alto Paranaíba,31021,Frutal,284,663,947,78,1024,1102
3138658,Lontra,MG,-15.903333,-44305,3102,Norte de Minas,31007,Montes Claros,91,340,431,146,311,457
3138674,Luisburgo,MG,-20.439722,-42.102776,3112,Zona da Mata,31061,Manhuaçu,-17,428,411,-14,451,437
3138682,Luislândia,MG,-16.1175,-44.588612,3102,Norte de Minas,31007,Montes Claros,113,264,377,24,411,435
3138708,Luminárias,MG,-21.51111,-44.903336,3111,Campo das Vertentes,31057,Lavras,-90,351,261,-41,387,346
3138807,Luz,MG,-19.801388,-45.685558,3106,Central Mineira,31026,Bom Despacho,85,285,370,4,378,382
3138906,Machacalis,MG,-17.077223,-40.716389,3104,Vale do Mucuri,31016,Nanuque,-68,1026,958,-29,1161,1132
3139003,Machado,MG,-21.674721,-45.919724,3110,Sul/Sudoeste de Minas,31049,Alfenas,-149,565,416,-167,623,456
3139102,Madre de Deus de Minas,MG,-21.4825,-44.330276,3111,Campo das Vertentes,31058,São João Del Rei,-438,1707,1269,-331,1999,1668
3139201,Malacacheta,MG,-17.842222,-42.076664,3104,Vale do Mucuri,31015,Teófilo Otoni,63,154,217,33,207,240
3139250,Mamonas,MG,-15.050278,-42.949444,3102,Norte de Minas,31004,Janaúba,-1382,1767,385,-1402,1973,571
3139300,Manga,MG,-14.755834,-43.932224,3102,Norte de Minas,31003,Januária,21,135,156,-12,163,151
3139409,Manhuaçu,MG,-20.258055,-42.033611,3112,Zona da Mata,31061,Manhuaçu,-1051,1394,343,-969,1474,505
3139508,Manhumirim,MG,-20.357779,-41.958057,3112,Zona da Mata,31061,Manhuaçu,-847,4361,3514,-974,5547,4573
3139607,Mantena,MG,-18.781666,-40.980278,3108,Vale do Rio Doce,31038,Mantena,-128,1241,1113,-442,1717,1275
3139805,Mar de Espanha,MG,-21.867222,-43.009724,3112,Zona da Mata,31065,Juiz de Fora,-535,1208,673,-790,1727,937
3139706,Maravilhas,MG,-19.516111,-44.676392,3107,Metropolitana de Belo Horizonte,31027,Sete Lagoas,35,495,530,24,531,555
3139904,Maria da Fé,MG,-22.308054,-45.375275,3110,Sul/Sudoeste de Minas,31056,Itajubá,301,287,588,279,402,681
3140001,Mariana,MG,-20.377777,-43.416111,3107,Metropolitana de Belo Horizonte,31033,Ouro Preto,-570,827,257,-658,985,327
3140100,Marilac,MG,-18.508055,-42.083889,3108,Vale do Rio Doce,31037,Governador Valadares,511,2867,3378,1026,3147,4173
3140159,Mário Campos,MG,-20.056389,-44.188335,3107,Metropolitana de Belo Horizonte,31030,Belo Horizonte,35,179,214,-33,265,232
3140209,Maripá de Minas,MG,-21.698055,-42.958889,3112,Zona da Mata,31065,Juiz de Fora,1650,695,2345,1864,548,2412
3140308,Marliéria,MG,-19.712223,-42.732224,3108,Vale do Rio Doce,31039,Ipatinga,70,50,120,77,58,135
3140407,Marmelópolis,MG,-22.449165,-45.165279,3110,Sul/Sudoeste de Minas,31056,Itajubá,99,345,444,61,400,461
3140506,Martinho Campos,MG,-19.331667,-45.236946,3106,Central Mineira,31026,Bom Despacho,-63,120,57,-80,137,57
3140530,Martins Soares,MG,-20.256945,-41.876942,3112,Zona da Mata,31061,Manhuaçu,-153,965,812,-98,1221,1123
3140555,Mata Verde,MG,-15.686389,-40.741112,3103,Jequitinhonha,31014,Almenara,205,432,637,249,457,706
3140605,Materlândia,MG,-18.474167,-43.059723,3108,Vale do Rio Doce,31035,Guanhães,30,123,153,-3,181,178
3140704,Mateus Leme,MG,-19.986389,-44.42778,3107,Metropolitana de Belo Horizonte,31030,Belo Horizonte,-146,311,165,-123,306,183
3171501,Mathias Lobato,MG,-18.564722,-41.914448,3108,Vale do Rio Doce,31037,Governador Valadares,1898,1492,3390,1944,1582,3526
3140803,Matias Barbosa,MG,-21.869167,-43.319443,3112,Zona da Mata,31065,Juiz de Fora,94,505,599,340,529,869
3140852,Matias Cardoso,MG,-14.854723,-43.921947,3102,Norte de Minas,31003,Januária,-209,783,574,-366,981,615
3140902,Matipó,MG,-20.283888,-42.34111,3112,Zona da Mata,31061,Manhuaçu,-360,1185,825,-259,1325,1066
3141009,Mato Verde,MG,-15.397223,-42.866386,3102,Norte de Minas,31004,Janaúba,-329,642,313,-365,699,334
3141108,Matozinhos,MG,-19.557777,-44.081387,3107,Metropolitana de Belo Horizonte,31027,Sete Lagoas,1044,1482,2526,979,1743,2722
3141207,Matutina,MG,-19.2225,-45.968613,3105,Triângulo Mineiro/Alto Paranaíba,31020,Patos de Minas,-118,315,197,-171,366,195
3141306,Medeiros,MG,-19.995556,-46.226112,3109,Oeste de Minas,31042,Piuí,133,91,224,136,95,231
3141405,Medina,MG,-16.2225,-41.476944,3103,Jequitinhonha,31013,Pedra Azul,-841,1364,523,-957,1646,689
3141504,Mendes Pimentel,MG,-18.66111,-41.404724,3108,Vale do Rio Doce,31038,Mantena,-139,441,302,-219,564,345
3141603,Mercês,MG,-21.194166,-43.341389,3112,Zona da Mata,31064,Ubá,-117,450,333,-246,612,366
3141702,Mesquita,MG,-19.2225,-42.60722,3108,Vale do Rio Doce,31039,Ipatinga,-160,361,201,-111,350,239
3141801,Minas Novas,MG,-17.218611,-42.590275,3103,Jequitinhonha,31011,Capelinha,-1071,1643,572,-1074,1719,645
3141900,Minduri,MG,-21.681944,-44.603886,3110,Sul/Sudoeste de Minas,31055,Andrelândia,-21,257,236,-3,259,256
3142007,Mirabela,MG,-16.262777,-44.164448,3102,Norte de Minas,31007,Montes Claros,-493,797,304,-466,948,482
3142106,Miradouro,MG,-20.890556,-42.342499,3112,Zona da Mata,31063,Muriaé,-214,738,524,-100,751,651
3142205,Miraí,MG,-21.195276,-42.614166,3112,Zona da Mata,31063,Muriaé,-340,748,408,-347,877,530
3142254,Miravânia,MG,-14.741112,-44.403614,3102,Norte de Minas,31003,Januária,43,99,142,-66,204,138
3142304,Moeda,MG,-20.333055,-44.052776,3107,Metropolitana de Belo Horizonte,31032,Itaguara,38,415,453,149,345,494
3142403,Moema,MG,-19.843334,-45.410835,3106,Central Mineira,31026,Bom Despacho,-123,506,383,-69,494,425
3142502,Monjolos,MG,-18.325279,-44.119164,3106,Central Mineira,31025,Curvelo,-155,276,121,-192,318,126
3142601,Monsenhor Paulo,MG,-21.7575,-45.541111,3110,Sul/Sudoeste de Minas,31050,Varginha,268,250,518,275,284,559
3142700,Montalvânia,MG,-14.422778,-44.365555,3102,Norte de Minas,31003,Januária,-439,567,128,-497,688,191
3142809,Monte Alegre de Minas,MG,-18.870556,-48.880833,3105,Triângulo Mineiro/Alto Paranaíba,31018,Uberlândia,643,717,1360,439,1010,1449
3142908,Monte Azul,MG,-15155,-42.874722,3102,Norte de Minas,31004,Janaúba,-410,838,428,-528,1027,499
3143005,Monte Belo,MG,-21.326389,-46.367496,3110,Sul/Sudoeste de Minas,31048,São Sebastião do Paraíso,-294,591,297,-292,691,399
3143104,Monte Carmelo,MG,-18.724722,-47.498611,3105,Triângulo Mineiro/Alto Paranaíba,31019,Patrocínio,-699,2479,1780,-598,2850,2252
3143153,Monte Formoso,MG,-16.865833,-41.25528,3103,Jequitinhonha,31014,Almenara,-155,324,169,16,246,262
3143203,Monte Santo de Minas,MG,-21.189722,-46.980278,3110,Sul/Sudoeste de Minas,31048,São Sebastião do Paraíso,-309,712,403,-292,682,390
3143401,Monte Sião,MG,-22.432499,-46.572498,3110,Sul/Sudoeste de Minas,31051,Poços de Caldas,3749,13768,17517,3873,16254,20127
3143302,Montes Claros,MG,-16.735001,-43.861664,3102,Norte de Minas,31007,Montes Claros,131,478,609,155,512,667
3143450,Montezuma,MG,-15.171945,-42.497223,3102,Norte de Minas,31005,Salinas,48,113,161,64,114,178
3143500,Morada Nova de Minas,MG,-18.604445,-45.356667,3106,Central Mineira,31024,Três Marias,-29,584,555,-126,746,620
3143609,Morro da Garça,MG,-18.546944,-44.602497,3106,Central Mineira,31025,Curvelo,-24,160,136,-80,242,162
3143708,Morro do Pilar,MG,-19.215557,-43.376389,3107,Metropolitana de Belo Horizonte,31028,Conceição do Mato Dentro,-143,274,131,-154,313,159
3143807,Munhoz,MG,-22.613056,-46.360554,3110,Sul/Sudoeste de Minas,31052,Pouso Alegre,-94,192,98,-129,224,95
3143906,Muriaé,MG,-21.130556,-42.366386,3112,Zona da Mata,31063,Muriaé,662,2684,3346,595,3108,3703
3144003,Mutum,MG,-19.799999,-41.438335,3108,Vale do Rio Doce,31041,Aimorés,-616,1315,699,-734,1599,865
3144102,Muzambinho,MG,-21.375834,-46.525555,3110,Sul/Sudoeste de Minas,31048,São Sebastião do Paraíso,294,607,901,302,752,1054
3144201,Nacip Raydan,MG,-18.459167,-42.248611,3108,Vale do Rio Doce,31037,Governador Valadares,-66,184,118,-7,260,253
3144300,Nanuque,MG,-17.839167,-40.353886,3104,Vale do Mucuri,31016,Nanuque,-634,1744,1110,-471,1910,1439
3144359,Naque,MG,-19.230278,-42.328331,3108,Vale do Rio Doce,31039,Ipatinga,75,559,634,137,520,657
3144375,Natalândia,MG,-16.504168,-46.493332,3101,Noroeste de Minas,31001,Unaí,-8,276,268,94,236,330
3144409,Natércia,MG,-22.120001,-45.511665,3110,Sul/Sudoeste de Minas,31053,Santa Rita do Sapucaí,88,170,258,64,202,266
3144508,Nazareno,MG,-21.216389,-44.611389,3111,Campo das Vertentes,31058,São João Del Rei,-430,699,269,-233,571,338
3144607,Nepomuceno,MG,-21.235834,-45.235832,3111,Campo das Vertentes,31057,Lavras,-487,1251,764,-549,1466,917
3144656,Ninheira,MG,-15.321111,-41.753613,3102,Norte de Minas,31005,Salinas,15,67,82,10,80,90
3144672,Nova Belém,MG,-18475,-41.016666,3108,Vale do Rio Doce,31038,Mantena,-116,189,73,-68,196,128
3144706,Nova Era,MG,-19.75,-43.037498,3107,Metropolitana de Belo Horizonte,31031,Itabira,-1054,1671,617,-845,1618,773
3144805,Nova Lima,MG,-19.985556,-43.846664,3107,Metropolitana de Belo Horizonte,31030,Belo Horizonte,4022,2597,6619,4196,3028,7224
3144904,Nova Módica,MG,-18.437222,-41.501389,3108,Vale do Rio Doce,31037,Governador Valadares,-83,258,175,13,191,204
3145000,Nova Ponte,MG,-19.1525,-47.674725,3105,Triângulo Mineiro/Alto Paranaíba,31023,Araxá,713,572,1285,412,951,1363
3145059,Nova Porteirinha,MG,-15.8025,-43.300556,3102,Norte de Minas,31004,Janaúba,628,198,826,623,256,879
3145109,Nova Resende,MG,-21.126112,-46.42028,3110,Sul/Sudoeste de Minas,31048,São Sebastião do Paraíso,135,270,405,69,409,478
3145208,Nova Serrana,MG,-19.876112,-44.983612,3109,Oeste de Minas,31043,Divinópolis,7377,3270,10647,8375,3459,11834
3136603,Nova União,MG,-19.689999,-43.57972,3107,Metropolitana de Belo Horizonte,31031,Itabira,-505,1099,594,-638,1361,723
3145307,Novo Cruzeiro,MG,-17.468056,-41.875275,3103,Jequitinhonha,31012,Araçuaí,-4,403,399,-56,557,501
3145356,Novo Oriente de Minas,MG,-17.415277,-41.215279,3104,Vale do Mucuri,31015,Teófilo Otoni,101,109,210,159,84,243
3145372,Novorizonte,MG,-16.017221,-42.40778,3102,Norte de Minas,31005,Salinas,-216,295,79,-192,275,83
3145406,Olaria,MG,-21.860834,-43.937222,3112,Zona da Mata,31065,Juiz de Fora,19,280,299,-18,409,391
3145455,Olhos-d'Água,MG,-17.396944,-43.573334,3102,Norte de Minas,31009,Bocaiúva,39,91,130,58,103,161
3145505,Olímpio Noronha,MG,-22.06778,-45.263889,3110,Sul/Sudoeste de Minas,31054,São Lourenço,-330,1776,1446,-649,2422,1773
3145604,Oliveira,MG,-20.696388,-44.827221,3109,Oeste de Minas,31046,Oliveira,5,118,123,-31,163,132
3145703,Oliveira Fortes,MG,-21.33889,-43.45639,3112,Zona da Mata,31065,Juiz de Fora,69,296,365,107,359,466
3145802,Onça de Pitangui,MG,-19.730278,-44.80722,3107,Metropolitana de Belo Horizonte,31029,Pará de Minas,47,250,297,84,253,337
3145851,Oratórios,MG,-20.430555,-42.805553,3112,Zona da Mata,31060,Ponte Nova,229,278,507,387,194,581
3145877,Orizânia,MG,-20.50639,-42.209999,3112,Zona da Mata,31063,Muriaé,1625,1366,2991,1688,1460,3148
3145901,Ouro Branco,MG,-20.520834,-43.691944,3107,Metropolitana de Belo Horizonte,31034,Conselheiro Lafaiete,-99,868,769,47,1025,1072
3146008,Ouro Fino,MG,-22.283054,-46.368889,3110,Sul/Sudoeste de Minas,31051,Poços de Caldas,-532,3676,3144,-521,4115,3594
3146107,Ouro Preto,MG,-20.2875,-43.508057,3107,Metropolitana de Belo Horizonte,31033,Ouro Preto,-562,655,93,-582,717,135
3146206,Ouro Verde de Minas,MG,-18.070557,-41.269722,3104,Vale do Mucuri,31015,Teófilo Otoni,-20,178,158,-20,200,180
3146255,Padre Carvalho,MG,-16.364445,-42.515278,3102,Norte de Minas,31008,Grão Mogol,-868,1594,726,-1034,1883,849
3146305,Padre Paraíso,MG,-17.074167,-41.484444,3103,Jequitinhonha,31012,Araçuaí,-132,483,351,-168,548,380
3146552,Pai Pedro,MG,-15.516666,-43.065277,3102,Norte de Minas,31004,Janaúba,-189,598,409,-266,734,468
3146404,Paineiras,MG,-18.908333,-45.531666,3106,Central Mineira,31024,Três Marias,-126,231,105,-106,253,147
3146503,Pains,MG,-20.370556,-45.661392,3109,Oeste de Minas,31044,Formiga,-41,122,81,-37,121,84
3146602,Paiva,MG,-21.289165,-43.415836,3112,Zona da Mata,31065,Juiz de Fora,-261,347,86,-268,375,107
3146701,Palma,MG,-21375,-42.314167,3112,Zona da Mata,31066,Cataguases,-143,313,170,-219,399,180
3146750,Palmópolis,MG,-16.735001,-40.420002,3103,Jequitinhonha,31014,Almenara,-366,954,588,-394,1062,668
3146909,Papagaios,MG,-19.449165,-44.74778,3107,Metropolitana de Belo Horizonte,31027,Sete Lagoas,21,2611,2632,196,2867,3063
3147105,Pará de Minas,MG,-19.860279,-44.608334,3107,Metropolitana de Belo Horizonte,31029,Pará de Minas,1377,2584,3961,1915,3432,5347
3147006,Paracatu,MG,-17.222223,-46.874722,3101,Noroeste de Minas,31002,Paracatu,-41,503,462,-99,616,517
3147204,Paraguaçu,MG,-21.547222,-45.737499,3110,Sul/Sudoeste de Minas,31049,Alfenas,-2,630,628,-92,765,673
3147303,Paraisópolis,MG,-22.554167,-45.779999,3110,Sul/Sudoeste de Minas,31056,Itajubá,420,1371,1791,489,1444,1933
3147402,Paraopeba,MG,-19.274445,-44.404167,3107,Metropolitana de Belo Horizonte,31027,Sete Lagoas,56,65,121,25,105,130
3147600,Passa Quatro,MG,-22.390278,-44.966667,3110,Sul/Sudoeste de Minas,31054,São Lourenço,-160,377,217,-98,358,260
3147709,Passa Tempo,MG,-20.650555,-44.495556,3109,Oeste de Minas,31046,Oliveira,26,492,518,-58,627,569
3147808,Passa-Vinte,MG,-22.209446,-44.234444,3110,Sul/Sudoeste de Minas,31055,Andrelândia,3,47,50,2,47,49
3147501,Passabém,MG,-19.353334,-43.136391,3107,Metropolitana de Belo Horizonte,31028,Conceição do Mato Dentro,-467,2870,2403,-78,3158,3080
3147907,Passos,MG,-20.718889,-46.609722,3110,Sul/Sudoeste de Minas,31047,Passos,-15,198,183,-1,199,198
3147956,Patis,MG,-16.076389,-44.081944,3102,Norte de Minas,31007,Montes Claros,824,6201,7025,345,7686,8031
3148004,Patos de Minas,MG,-18.57889,-46.518055,3105,Triângulo Mineiro/Alto Paranaíba,31020,Patos de Minas,-1218,4182,2964,-887,4505,3618
3148103,Patrocínio,MG,-18.943888,-46.9925,3105,Triângulo Mineiro/Alto Paranaíba,31019,Patrocínio,143,110,253,177,137,314
3148202,Patrocínio do Muriaé,MG,-21.1525,-42.214722,3112,Zona da Mata,31063,Muriaé,-412,715,303,-555,941,386
3148301,Paula Cândido,MG,-20.874166,-42.980278,3112,Zona da Mata,31062,Viçosa,-47,227,180,-109,303,194
3148400,Paulistas,MG,-18.4275,-42.868332,3108,Vale do Rio Doce,31035,Guanhães,9,520,529,35,635,670
3148509,Pavão,MG,-17.427776,-40.99889,3104,Vale do Mucuri,31015,Teófilo Otoni,-743,1294,551,-1162,1807,645
3148608,Peçanha,MG,-18.548611,-42.556942,3108,Vale do Rio Doce,31036,Peçanha,-1656,2020,364,-2044,2655,611
3148707,Pedra Azul,MG,-16.005278,-41.297222,3103,Jequitinhonha,31013,Pedra Azul,-192,284,92,-189,329,140
3148756,Pedra Bonita,MG,-20.520555,-42.329998,3112,Zona da Mata,31061,Manhuaçu,-361,482,121,-333,510,177
3148806,Pedra do Anta,MG,-20.597223,-42.713612,3112,Zona da Mata,31062,Viçosa,42,225,267,-13,298,285
3148905,Pedra do Indaiá,MG,-20.258333,-45.208889,3109,Oeste de Minas,31044,Formiga,-107,226,119,-50,187,137
3149002,Pedra Dourada,MG,-20.830278,-42.154167,3112,Zona da Mata,31063,Muriaé,-463,803,340,-677,1048,371
3149101,Pedralva,MG,-22.242779,-45.465836,3110,Sul/Sudoeste de Minas,31053,Santa Rita do Sapucaí,-39,340,301,30,327,357
3149150,Pedras de Maria da Cruz,MG,-15.606668,-44.391392,3102,Norte de Minas,31003,Januária,18,274,292,-1,307,306
3149200,Pedrinópolis,MG,-19.227777,-47.462223,3105,Triângulo Mineiro/Alto Paranaíba,31023,Araxá,523,2385,2908,788,2589,3377
3149309,Pedro Leopoldo,MG,-19.618055,-44.043056,3107,Metropolitana de Belo Horizonte,31030,Belo Horizonte,-47,147,100,-100,207,107
3149408,Pedro Teixeira,MG,-21.70639,-43.745556,3112,Zona da Mata,31065,Juiz de Fora,100,102,202,63,144,207
3149507,Pequeri,MG,-21.834167,-43.120552,3112,Zona da Mata,31065,Juiz de Fora,74,303,377,116,310,426
3149606,Pequi,MG,-19.632778,-44.65889,3107,Metropolitana de Belo Horizonte,31027,Sete Lagoas,1026,209,1235,968,291,1259
3149705,Perdigão,MG,-19.952778,-45.084164,3109,Oeste de Minas,31043,Divinópolis,520,805,1325,544,969,1513
3149804,Perdizes,MG,-19.352777,-47.292778,3105,Triângulo Mineiro/Alto Paranaíba,31023,Araxá,-73,863,790,109,891,1000
3149903,Perdões,MG,-21.090834,-45.091389,3109,Oeste de Minas,31045,Campo Belo,-163,531,368,-61,502,441
3149952,Periquito,MG,-19.157499,-42.233612,3108,Vale do Rio Doce,31039,Ipatinga,-20,240,220,-157,399,242
3150000,Pescador,MG,-18.356945,-41.598053,3108,Vale do Rio Doce,31037,Governador Valadares,98,89,187,14,178,192
3150109,Piau,MG,-21.509445,-43.322777,3112,Zona da Mata,31065,Juiz de Fora,543,259,802,691,297,988
3150158,Piedade de Caratinga,MG,-19.759445,-42.075832,3108,Vale do Rio Doce,31040,Caratinga,17,181,198,-44,251,207
3150208,Piedade de Ponte Nova,MG,-20.245277,-42.734165,3112,Zona da Mata,31060,Ponte Nova,-136,253,117,-124,292,168
3150307,Piedade do Rio Grande,MG,-21.468611,-44.196114,3111,Campo das Vertentes,31058,São João Del Rei,44,291,335,-25,391,366
3150406,Piedade dos Gerais,MG,-20.471111,-44.227222,3107,Metropolitana de Belo Horizonte,31032,Itaguara,99,311,410,75,381,456
3150505,Pimenta,MG,-20.483889,-45.798889,3109,Oeste de Minas,31044,Formiga,15,308,323,200,307,507
3150539,Pingo-d'Água,MG,-19.727501,-42.408058,3108,Vale do Rio Doce,31040,Caratinga,-81,191,110,-91,262,171
3150570,Pintópolis,MG,-16.058887,-45.155556,3102,Norte de Minas,31003,Januária,-169,351,182,-217,429,212
3150604,Piracema,MG,-20.507778,-44.482502,3109,Oeste de Minas,31046,Oliveira,165,180,345,289,241,530
3150703,Pirajuba,MG,-19.906944,-48.700558,3105,Triângulo Mineiro/Alto Paranaíba,31021,Frutal,-622,1020,398,-814,1256,442
3150802,Piranga,MG,-20.684721,-43.300278,3112,Zona da Mata,31062,Viçosa,95,137,232,107,158,265
3150901,Piranguçu,MG,-22.527777,-45.495277,3110,Sul/Sudoeste de Minas,31056,Itajubá,197,399,596,248,418,666
3151008,Piranguinho,MG,-22.401112,-45.531666,3110,Sul/Sudoeste de Minas,31056,Itajubá,7,243,250,93,249,342
3151107,Pirapetinga,MG,-21.656389,-42.345554,3112,Zona da Mata,31066,Cataguases,-1379,4270,2891,-1835,5352,3517
3151206,Pirapora,MG,-17.345001,-44.941944,3102,Norte de Minas,31006,Pirapora,-167,567,400,-66,471,405
3151305,Piraúba,MG,-21.276388,-43.02639,3112,Zona da Mata,31064,Ubá,-357,1213,856,-251,1477,1226
3151404,Pitangui,MG,-19.682777,-44.890278,3107,Metropolitana de Belo Horizonte,31029,Pará de Minas,-453,1729,1276,-121,1940,1819
3151503,Piumhi,MG,-20.465279,-45.958057,3109,Oeste de Minas,31042,Piuí,199,333,532,258,348,606
3151602,Planura,MG,-20.137777,-48.701946,3105,Triângulo Mineiro/Alto Paranaíba,31021,Frutal,-61,445,384,-6,484,478
3151701,Poço Fundo,MG,-21.780832,-45965,3110,Sul/Sudoeste de Minas,31049,Alfenas,1268,3296,4564,2045,3629,5674
3151800,Poços de Caldas,MG,-21.787777,-46.56139,3110,Sul/Sudoeste de Minas,31051,Poços de Caldas,-101,552,451,-237,731,494
3151909,Pocrane,MG,-19.619722,-41.636948,3108,Vale do Rio Doce,31041,Aimorés,-239,1182,943,17,1331,1348
3152006,Pompéu,MG,-19.224445,-44.93528,3106,Central Mineira,31024,Três Marias,-1739,4311,2572,-2244,5124,2880
3152105,Ponte Nova,MG,-20.416388,-42.908611,3112,Zona da Mata,31060,Ponte Nova,-19,248,229,36,264,300
3152131,Ponto Chique,MG,-16.630556,-45.065556,3102,Norte de Minas,31007,Montes Claros,264,231,495,257,261,518
3152170,Ponto dos Volantes,MG,-16.752777,-41.504166,3103,Jequitinhonha,31012,Araçuaí,-1207,2017,810,-1769,2685,916
3152204,Porteirinha,MG,-15.743334,-43.028332,3102,Norte de Minas,31004,Janaúba,28,395,423,-132,584,452
3152303,Porto Firme,MG,-20.673332,-43.084442,3112,Zona da Mata,31062,Viçosa,-230,949,719,-262,1152,890
3152402,Poté,MG,-17.806665,-41.786388,3104,Vale do Mucuri,31015,Teófilo Otoni,3490,3717,7207,3750,4427,8177
3152501,Pouso Alegre,MG,-22.230001,-45.93639,3110,Sul/Sudoeste de Minas,31052,Pouso Alegre,-197,423,226,-125,415,290
3152600,Pouso Alto,MG,-22.193611,-44.9725,3110,Sul/Sudoeste de Minas,31054,São Lourenço,-33,303,270,-69,369,300
3152709,Prados,MG,-21.057499,-44.07972,3111,Campo das Vertentes,31058,São João Del Rei,-86,1423,1337,-238,1640,1402
3152808,Prata,MG,-19.307222,-48.924168,3105,Triângulo Mineiro/Alto Paranaíba,31018,Uberlândia,-224,485,261,-277,560,283
3152907,Pratápolis,MG,-20.744722,-46.860832,3110,Sul/Sudoeste de Minas,31047,Passos,-89,209,120,-122,245,123
3153004,Pratinha,MG,-19.751112,-46.378056,3105,Triângulo Mineiro/Alto Paranaíba,31023,Araxá,-254,439,185,-239,452,213
3153103,Presidente Bernardes,MG,-20.76861,-43.1875,3112,Zona da Mata,31062,Viçosa,-262,390,128,-268,468,200
3153202,Presidente Juscelino,MG,-18.637222,-44.058334,3106,Central Mineira,31025,Curvelo,-17,82,65,-1,93,92
3153301,Presidente Kubitschek,MG,-18.614445,-43.562222,3103,Jequitinhonha,31010,Diamantina,-113,1071,958,-98,1190,1092
3153400,Presidente Olegário,MG,-18.417778,-46.418056,3101,Noroeste de Minas,31002,Paracatu,12,554,566,-18,730,712
3153608,Prudente de Morais,MG,-19.481945,-44.155003,3107,Metropolitana de Belo Horizonte,31027,Sete Lagoas,584,281,865,573,373,946
3153707,Quartel Geral,MG,-19.273611,-45.55722,3106,Central Mineira,31026,Bom Despacho,-248,388,140,-86,425,339
3153806,Queluzito,MG,-20.74,-43.884445,3107,Metropolitana de Belo Horizonte,31034,Conselheiro Lafaiete,93,72,165,69,119,188
3153905,Raposos,MG,-19.967222,-43.804165,3107,Metropolitana de Belo Horizonte,31030,Belo Horizonte,-180,483,303,-118,593,475
3154002,Raul Soares,MG,-20.101944,-42.452499,3112,Zona da Mata,31060,Ponte Nova,-1075,1969,894,-1229,2404,1175
3154101,Recreio,MG,-21525,-42.469166,3112,Zona da Mata,31066,Cataguases,9,191,200,52,260,312
3154150,Reduto,MG,-20.218889,-41.982502,3112,Zona da Mata,31061,Manhuaçu,226,443,669,344,469,813
3154200,Resende Costa,MG,-20.922222,-44.237499,3111,Campo das Vertentes,31058,São João Del Rei,249,336,585,170,504,674
3154309,Resplendor,MG,-19.325556,-41.25528,3108,Vale do Rio Doce,31041,Aimorés,-128,770,642,-246,1035,789
3154408,Ressaquinha,MG,-21.0625,-43.762779,3111,Campo das Vertentes,31059,Barbacena,-75,308,233,-34,317,283
3154457,Riachinho,MG,-16.230001,-45.991669,3102,Norte de Minas,31006,Pirapora,-231,544,313,-139,515,376
3154507,Riacho dos Machados,MG,-16.006111,-43.049442,3102,Norte de Minas,31004,Janaúba,-489,710,221,-504,751,247
3154606,Ribeirão das Neves,MG,-19.766945,-44.086666,3107,Metropolitana de Belo Horizonte,31030,Belo Horizonte,27689,7372,35061,31695,7474,39169
3154705,Ribeirão Vermelho,MG,-21.190556,-45.061943,3111,Campo das Vertentes,31057,Lavras,110,119,229,132,142,274
3154804,Rio Acima,MG,-20.087502,-43.789444,3107,Metropolitana de Belo Horizonte,31030,Belo Horizonte,664,110,774,479,278,757
3154903,Rio Casca,MG,-20.226112,-42.650833,3112,Zona da Mata,31060,Ponte Nova,-693,1191,498,-1219,1823,604
3155108,Rio do Prado,MG,-16.608334,-40.569721,3103,Jequitinhonha,31014,Almenara,-126,301,175,-127,315,188
3155009,Rio Doce,MG,-20.244722,-42.895836,3112,Zona da Mata,31060,Ponte Nova,-27,282,255,-87,356,269
3155207,Rio Espera,MG,-20.855278,-43.474445,3112,Zona da Mata,31062,Viçosa,-346,501,155,-408,572,164
3155306,Rio Manso,MG,-20.265278,-44.307777,3107,Metropolitana de Belo Horizonte,31032,Itaguara,257,283,540,182,387,569
3155405,Rio Novo,MG,-21.4575,-43.125275,3112,Zona da Mata,31065,Juiz de Fora,-259,566,307,-371,742,371
3155504,Rio Paranaíba,MG,-19.193611,-46.247223,3105,Triângulo Mineiro/Alto Paranaíba,31020,Patos de Minas,619,585,1204,637,695,1332
3155603,Rio Pardo de Minas,MG,-15.609722,-42.539722,3102,Norte de Minas,31005,Salinas,-564,953,389,-572,1109,537
3155702,Rio Piracicaba,MG,-19.929167,-43.174168,3107,Metropolitana de Belo Horizonte,31031,Itabira,-183,1110,927,-476,1471,995
3155801,Rio Pomba,MG,-21.274721,-43.179169,3112,Zona da Mata,31064,Ubá,148,846,994,96,984,1080
3155900,Rio Preto,MG,-22.089167,-43.827778,3112,Zona da Mata,31065,Juiz de Fora,-173,230,57,-115,207,92
3156007,Rio Vermelho,MG,-18.293612,-43.009167,3107,Metropolitana de Belo Horizonte,31028,Conceição do Mato Dentro,-477,622,145,-713,873,160
3156106,Ritápolis,MG,-21.021944,-44.318054,3111,Campo das Vertentes,31058,São João Del Rei,-106,331,225,-150,385,235
3156205,Rochedo de Minas,MG,-21.629723,-43.019722,3112,Zona da Mata,31065,Juiz de Fora,30,93,123,41,99,140
3156304,Rodeiro,MG,-21.200001,-42.864998,3112,Zona da Mata,31064,Ubá,594,282,876,599,290,889
3156403,Romaria,MG,-18.8825,-47.585556,3105,Triângulo Mineiro/Alto Paranaíba,31019,Patrocínio,172,246,418,210,235,445
3156452,Rosário da Limeira,MG,-20.978889,-42.511944,3112,Zona da Mata,31063,Muriaé,204,207,411,194,192,386
3156502,Rubelita,MG,-16.407499,-42.262501,3102,Norte de Minas,31005,Salinas,-551,698,147,-591,791,200
3156601,Rubim,MG,-16.374722,-40.537498,3103,Jequitinhonha,31014,Almenara,-579,980,401,-779,1261,482
3156700,Sabará,MG,-19.886389,-43.806667,3107,Metropolitana de Belo Horizonte,31030,Belo Horizonte,5785,3822,9607,6389,4348,10737
3156809,Sabinópolis,MG,-18.666111,-43.083889,3108,Vale do Rio Doce,31035,Guanhães,-724,1186,462,-804,1343,539
3156908,Sacramento,MG,-19.865278,-47.440002,3105,Triângulo Mineiro/Alto Paranaíba,31023,Araxá,-117,1134,1017,-553,1510,957
3157005,Salinas,MG,-16.170277,-42.290276,3102,Norte de Minas,31005,Salinas,-415,2150,1735,-424,2608,2184
3157104,Salto da Divisa,MG,-16.002777,-39.946945,3103,Jequitinhonha,31014,Almenara,-233,474,241,-209,488,279
3157203,Santa Bárbara,MG,-19.959446,-43.415279,3107,Metropolitana de Belo Horizonte,31031,Itabira,-473,1712,1239,-743,2174,1431
3157252,Santa Bárbara do Leste,MG,-19.977777,-42.139725,3108,Vale do Rio Doce,31040,Caratinga,-68,683,615,-32,780,748
3157278,Santa Bárbara do Monte Verde,MG,-21.959167,-43.702225,3112,Zona da Mata,31065,Juiz de Fora,3,173,176,-94,284,190
3157302,Santa Bárbara do Tugúrio,MG,-21.246111,-43.559444,3111,Campo das Vertentes,31059,Barbacena,-38,154,116,-20,150,130
3157336,Santa Cruz de Minas,MG,-21.119722,-44.223335,3111,Campo das Vertentes,31058,São João Del Rei,600,141,741,649,131,780
3157377,Santa Cruz de Salinas,MG,-16.098333,-41.746387,3102,Norte de Minas,31005,Salinas,-117,193,76,-69,162,93
3157401,Santa Cruz do Escalvado,MG,-20.236111,-42.813889,3112,Zona da Mata,31060,Ponte Nova,-89,246,157,-133,372,239
3157500,Santa Efigênia de Minas,MG,-18.827223,-42.448334,3108,Vale do Rio Doce,31035,Guanhães,-234,370,136,-303,464,161
3157609,Santa Fé de Minas,MG,-16.689999,-45.413891,3102,Norte de Minas,31006,Pirapora,44,215,259,39,266,305
3157658,Santa Helena de Minas,MG,-16.983055,-40.685558,3104,Vale do Mucuri,31016,Nanuque,-319,454,135,-419,563,144
3157708,Santa Juliana,MG,-19.308611,-47.525276,3105,Triângulo Mineiro/Alto Paranaíba,31023,Araxá,95,551,646,-164,849,685
3157807,Santa Luzia,MG,-19.769722,-43.851387,3107,Metropolitana de Belo Horizonte,31030,Belo Horizonte,6351,7388,13739,7631,7359,14990
3157906,Santa Margarida,MG,-20.383888,-42.250557,3112,Zona da Mata,31061,Manhuaçu,-115,629,514,-277,838,561
3158003,Santa Maria de Itabira,MG,-19.449444,-43.112499,3107,Metropolitana de Belo Horizonte,31031,Itabira,-360,763,403,-316,743,427
3158102,Santa Maria do Salto,MG,-16.24889,-40.149445,3103,Jequitinhonha,31014,Almenara,-220,398,178,-204,433,229
3158201,Santa Maria do Suaçuí,MG,-18.190277,-42.414169,3108,Vale do Rio Doce,31036,Peçanha,-1169,1806,637,-1242,2064,822
3159209,Santa Rita de Caldas,MG,-22.02861,-46.336666,3110,Sul/Sudoeste de Minas,31051,Poços de Caldas,-143,664,521,38,620,658
3159407,Santa Rita de Ibitipoca,MG,-21.562777,-43.914722,3112,Zona da Mata,31065,Juiz de Fora,-3,192,189,-22,219,197
3159308,Santa Rita de Jacutinga,MG,-22.149445,-44.094997,3112,Zona da Mata,31065,Juiz de Fora,-338,725,387,-548,958,410
3159357,Santa Rita de Minas,MG,-19.874445,-42.131943,3108,Vale do Rio Doce,31040,Caratinga,-55,104,49,-95,127,32
3159506,Santa Rita do Itueto,MG,-19.359722,-41.379997,3108,Vale do Rio Doce,31041,Aimorés,7,114,121,20,136,156
3159605,Santa Rita do Sapucaí,MG,-22.252222,-45.703335,3110,Sul/Sudoeste de Minas,31053,Santa Rita do Sapucaí,-3,147,144,2,178,180
3159704,Santa Rosa da Serra,MG,-19.529722,-45.966389,3105,Triângulo Mineiro/Alto Paranaíba,31020,Patos de Minas,60,404,464,52,505,557
3159803,Santa Vitória,MG,-18.838612,-50.121387,3105,Triângulo Mineiro/Alto Paranaíba,31017,Ituiutaba,5226,506,5732,5695,560,6255
3158300,Santana da Vargem,MG,-21.249166,-45.506668,3110,Sul/Sudoeste de Minas,31050,Varginha,199,179,378,141,253,394
3158409,Santana de Cataguases,MG,-21.287222,-42.55722,3112,Zona da Mata,31066,Cataguases,-137,294,157,-120,307,187
3158508,Santana de Pirapama,MG,-19.006111,-44.043056,3107,Metropolitana de Belo Horizonte,31027,Sete Lagoas,-333,642,309,-308,689,381
3158607,Santana do Deserto,MG,-21.950001,-43.166389,3112,Zona da Mata,31065,Juiz de Fora,-88,194,106,-79,185,106
3158706,Santana do Garambéu,MG,-21.601389,-44.104443,3111,Campo das Vertentes,31058,São João Del Rei,362,381,743,417,431,848
3158805,Santana do Jacaré,MG,-20.897778,-45.130833,3109,Oeste de Minas,31045,Campo Belo,-132,219,87,-137,272,135
3158904,Santana do Manhuaçu,MG,-20.1075,-41.925278,3112,Zona da Mata,31061,Manhuaçu,-277,569,292,-240,572,332
3158953,Santana do Paraíso,MG,-19.363611,-42.568611,3108,Vale do Rio Doce,31039,Ipatinga,344,1357,1701,314,1572,1886
3159001,Santana do Riacho,MG,-19.168888,-43.714447,3107,Metropolitana de Belo Horizonte,31027,Sete Lagoas,-102,300,198,-72,295,223
3159100,Santana dos Montes,MG,-20.787777,-43.691669,3107,Metropolitana de Belo Horizonte,31034,Conselheiro Lafaiete,526,978,1504,432,1298,1730
3159902,Santo Antônio do Amparo,MG,-20.946388,-44.918892,3109,Oeste de Minas,31046,Oliveira,-353,772,419,-859,1350,491
3160009,Santo Antônio do Aventureiro,MG,-21.758055,-42.815556,3112,Zona da Mata,31066,Cataguases,58,96,154,48,127,175
3160108,Santo Antônio do Grama,MG,-20.314444,-42.608608,3112,Zona da Mata,31060,Ponte Nova,-50,307,257,-41,339,298
3160207,Santo Antônio do Itambé,MG,-18.465834,-43.306667,3107,Metropolitana de Belo Horizonte,31028,Conceição do Mato Dentro,-38,140,102,-134,244,110
3160306,Santo Antônio do Jacinto,MG,-16.533888,-40.175835,3103,Jequitinhonha,31014,Almenara,-479,783,304,-736,1124,388
3160405,Santo Antônio do Monte,MG,-20.087223,-45.29361,3109,Oeste de Minas,31043,Divinópolis,904,826,1730,1037,993,2030
3160454,Santo Antônio do Retiro,MG,-15.339444,-42.623608,3102,Norte de Minas,31005,Salinas,-125,209,84,-115,205,90
3160504,Santo Antônio do Rio Abaixo,MG,-19.228334,-43.253887,3107,Metropolitana de Belo Horizonte,31028,Conceição do Mato Dentro,2,76,78,-45,127,82
3160603,Santo Hipólito,MG,-18.296944,-44.223057,3106,Central Mineira,31025,Curvelo,-62,201,139,-72,240,168
3160702,Santos Dumont,MG,-21.456667,-43.552498,3112,Zona da Mata,31065,Juiz de Fora,-736,1652,916,-979,2029,1050
3160801,São Bento Abade,MG,-21.581667,-45.075832,3110,Sul/Sudoeste de Minas,31050,Varginha,12,306,318,-115,465,350
3160900,São Brás do Suaçuí,MG,-20625,-43.949169,3107,Metropolitana de Belo Horizonte,31034,Conselheiro Lafaiete,222,119,341,139,182,321
3160959,São Domingos das Dores,MG,-19.526945,-42.011391,3108,Vale do Rio Doce,31040,Caratinga,161,187,348,98,296,394
3161007,São Domingos do Prata,MG,-19865,-42.968334,3107,Metropolitana de Belo Horizonte,31031,Itabira,-419,1286,867,-638,1647,1009
3161056,São Félix de Minas,MG,-18.591112,-41.486389,3108,Vale do Rio Doce,31038,Mantena,7,223,230,37,232,269
3161106,São Francisco,MG,-15.948611,-44.864445,3102,Norte de Minas,31003,Januária,-1483,2387,904,-1837,3161,1324
3161205,São Francisco de Paula,MG,-20.710001,-44.985279,3109,Oeste de Minas,31046,Oliveira,-306,418,112,-324,522,198
3161304,São Francisco de Sales,MG,-19.862778,-49.774166,3105,Triângulo Mineiro/Alto Paranaíba,31021,Frutal,92,219,311,-107,419,312
3161403,São Francisco do Glória,MG,-20.789444,-42.267498,3112,Zona da Mata,31063,Muriaé,-106,467,361,-28,444,416
3161502,São Geraldo,MG,-20.922777,-42.834442,3112,Zona da Mata,31064,Ubá,296,309,605,265,398,663
3161601,São Geraldo da Piedade,MG,-18.836111,-42.288055,3108,Vale do Rio Doce,31037,Governador Valadares,-167,361,194,-240,460,220
3161650,São Geraldo do Baixio,MG,-18.9,-41.359997,3108,Vale do Rio Doce,31037,Governador Valadares,182,227,409,137,279,416
3161700,São Gonçalo do Abaeté,MG,-18.338333,-45.833332,3101,Noroeste de Minas,31002,Paracatu,381,337,718,354,394,748
3161809,São Gonçalo do Pará,MG,-19.982779,-44.858887,3109,Oeste de Minas,31043,Divinópolis,643,362,1005,749,495,1244
3161908,São Gonçalo do Rio Abaixo,MG,-19.826113,-43.362221,3107,Metropolitana de Belo Horizonte,31031,Itabira,300,302,602,229,506,735
3125507,São Gonçalo do Rio Preto,MG,-18.004168,-43.390835,3103,Jequitinhonha,31010,Diamantina,-770,1766,996,-822,1917,1095
3162005,São Gonçalo do Sapucaí,MG,-21.892221,-45.595276,3110,Sul/Sudoeste de Minas,31053,Santa Rita do Sapucaí,-693,1933,1240,-582,2227,1645
3162104,São Gotardo,MG,-19.31111,-46.048889,3105,Triângulo Mineiro/Alto Paranaíba,31020,Patos de Minas,232,176,408,323,221,544
3162203,São João Batista do Glória,MG,-20.641388,-46.505554,3110,Sul/Sudoeste de Minas,31047,Passos,11,333,344,114,293,407
3162252,São João da Lagoa,MG,-16.853056,-44.351944,3102,Norte de Minas,31007,Montes Claros,-130,248,118,-133,258,125
3162302,São João da Mata,MG,-21.93,-45.92889,3110,Sul/Sudoeste de Minas,31053,Santa Rita do Sapucaí,-889,1330,441,-1173,1710,537
3162401,São João da Ponte,MG,-15.929167,-44.007778,3102,Norte de Minas,31007,Montes Claros,12,137,149,42,165,207
3162450,São João das Missões,MG,-14.883611,-44.090553,3102,Norte de Minas,31003,Januária,-988,3643,2655,-1086,4127,3041
3162500,São João del Rei,MG,-21.135555,-44.261665,3111,Campo das Vertentes,31058,São João Del Rei,162,448,610,270,460,730
3162559,São João do Manhuaçu,MG,-20.393612,-42.15139,3112,Zona da Mata,31061,Manhuaçu,139,162,301,136,178,314
3162575,São João do Manteninha,MG,-18.72139,-41.160278,3108,Vale do Rio Doce,31038,Mantena,-302,651,349,-411,843,432
3162609,São João do Oriente,MG,-19.338612,-42.15778,3108,Vale do Rio Doce,31040,Caratinga,44,147,191,97,121,218
3162658,São João do Pacuí,MG,-16.541945,-44.516109,3102,Norte de Minas,31007,Montes Claros,-88,360,272,-214,501,287
3162708,São João do Paraíso,MG,-15.313611,-42.014446,3102,Norte de Minas,31005,Salinas,-337,1033,696,-748,1471,723
3162807,São João Evangelista,MG,-18.547777,-42.763332,3108,Vale do Rio Doce,31035,Guanhães,-491,1257,766,-645,1438,793
3162906,São João Nepomuceno,MG,-21.539999,-43.010555,3112,Zona da Mata,31065,Juiz de Fora,3596,1252,4848,3434,1715,5149
3162922,São Joaquim de Bicas,MG,-20.049166,-44.273888,3107,Metropolitana de Belo Horizonte,31030,Belo Horizonte,309,297,606,327,297,624
3162948,São José da Barra,MG,-20.718056,-46.31139,3110,Sul/Sudoeste de Minas,31047,Passos,2129,479,2608,2194,582,2776
3162955,São José da Lapa,MG,-19.7075,-43.616386,3107,Metropolitana de Belo Horizonte,31030,Belo Horizonte,-89,304,215,-100,347,247
3163003,São José da Safira,MG,-18.324446,-42.143333,3108,Vale do Rio Doce,31037,Governador Valadares,258,249,507,212,351,563
3163102,São José da Varginha,MG,-19.709723,-44.556942,3107,Metropolitana de Belo Horizonte,31029,Pará de Minas,-70,309,239,-100,357,257
3163201,São José do Alegre,MG,-22.328611,-45.52639,3110,Sul/Sudoeste de Minas,31053,Santa Rita do Sapucaí,-79,258,179,-152,350,198
3163300,São José do Divino,MG,-18.478611,-41.389446,3108,Vale do Rio Doce,31037,Governador Valadares,-360,638,278,-421,718,297
3163409,São José do Goiabal,MG,-19.92861,-42.705002,3107,Metropolitana de Belo Horizonte,31031,Itabira,-285,519,234,-397,661,264
3163508,São José do Jacuri,MG,-18.275278,-42.67028,3108,Vale do Rio Doce,31036,Peçanha,59,88,147,13,145,158
3163607,São José do Mantimento,MG,-20.005278,-41.744724,3112,Zona da Mata,31061,Manhuaçu,297,1394,1691,261,1783,2044
3163706,São Lourenço,MG,-22.116388,-45.054443,3110,Sul/Sudoeste de Minas,31054,São Lourenço,-77,386,309,-126,470,344
3163805,São Miguel do Anta,MG,-20.707224,-42.718891,3112,Zona da Mata,31062,Viçosa,-73,264,191,-113,356,243
3163904,São Pedro da União,MG,-21.126667,-46.615276,3110,Sul/Sudoeste de Minas,31048,São Sebastião do Paraíso,-237,535,298,-342,746,404
3164100,São Pedro do Suaçuí,MG,-18.365833,-42.602497,3108,Vale do Rio Doce,31036,Peçanha,-130,511,381,-80,530,450
3164001,São Pedro dos Ferros,MG,-20.170277,-42.523888,3112,Zona da Mata,31060,Ponte Nova,-135,558,423,-33,613,580
3164209,São Romão,MG,-16.36861,-45.069443,3102,Norte de Minas,31006,Pirapora,-55,416,361,-69,468,399
3164308,São Roque de Minas,MG,-20.245277,-46.365833,3109,Oeste de Minas,31042,Piuí,-2,283,281,82,225,307
3164407,São Sebastião da Bela Vista,MG,-22.159166,-45.754166,3110,Sul/Sudoeste de Minas,31053,Santa Rita do Sapucaí,105,124,229,161,112,273
3164431,São Sebastião da Vargem Alegre,MG,-21.072224,-42.636391,3112,Zona da Mata,31063,Muriaé,272,226,498,222,317,539
3164472,São Sebastião do Anta,MG,-19.497778,-41.983612,3108,Vale do Rio Doce,31040,Caratinga,-670,924,254,-812,1114,302
3164506,São Sebastião do Maranhão,MG,-18.084446,-42.571388,3108,Vale do Rio Doce,31036,Peçanha,288,136,424,268,207,475
3164605,São Sebastião do Oeste,MG,-20.275555,-45.005001,3109,Oeste de Minas,31043,Divinópolis,1292,1074,2366,1273,1218,2491
3164704,São Sebastião do Paraíso,MG,-20.916945,-46.99139,3110,Sul/Sudoeste de Minas,31048,São Sebastião do Paraíso,73,66,139,36,122,158
3164803,São Sebastião do Rio Preto,MG,-19.291945,-43.173889,3107,Metropolitana de Belo Horizonte,31028,Conceição do Mato Dentro,61,67,128,57,74,131
3164902,São Sebastião do Rio Verde,MG,-22.218334,-44.976112,3110,Sul/Sudoeste de Minas,31054,São Lourenço,-1,477,476,-45,608,563
3165206,São Thomé das Letras,MG,-21.722223,-44.985279,3110,Sul/Sudoeste de Minas,31050,Varginha,66,228,294,148,222,370
3165008,São Tiago,MG,-20.913055,-44.509167,3111,Campo das Vertentes,31058,São João Del Rei,-325,592,267,-393,685,292
3165107,São Tomás de Aquino,MG,-20.784445,-47.098053,3110,Sul/Sudoeste de Minas,31048,São Sebastião do Paraíso,-139,394,255,-207,541,334
3165305,São Vicente de Minas,MG,-21.712502,-44.444168,3110,Sul/Sudoeste de Minas,31055,Andrelândia,-60,119,59,-145,209,64
3165404,Sapucaí-Mirim,MG,-22.747778,-45.7425,3110,Sul/Sudoeste de Minas,31052,Pouso Alegre,242,158,400,231,191,422
3165503,Sardoá,MG,-18.783611,-42.364998,3108,Vale do Rio Doce,31035,Guanhães,2804,1007,3811,3127,1063,4190
3165537,Sarzedo,MG,-20.035276,-44.144726,3107,Metropolitana de Belo Horizonte,31030,Belo Horizonte,-302,478,176,-365,574,209
3165560,Sem-Peixe,MG,-20.109167,-42.839443,3112,Zona da Mata,31060,Ponte Nova,-138,325,187,-273,483,210
3165578,Senador Amaral,MG,-22.587223,-46.176666,3110,Sul/Sudoeste de Minas,31052,Pouso Alegre,-139,318,179,-109,328,219
3165602,Senador Cortes,MG,-21.800554,-42.945557,3112,Zona da Mata,31065,Juiz de Fora,-33,156,123,-52,189,137
3165701,Senador Firmino,MG,-20.911943,-43.096664,3112,Zona da Mata,31064,Ubá,-242,407,165,-359,585,226
3165800,Senador José Bento,MG,-22.164444,-46.17889,3110,Sul/Sudoeste de Minas,31052,Pouso Alegre,99,100,199,60,135,195
3165909,Senador Modestino Gonçalves,MG,-17.946667,-43.225002,3103,Jequitinhonha,31010,Diamantina,-374,543,169,-400,673,273
3166006,Senhora de Oliveira,MG,-20.793888,-43.344444,3112,Zona da Mata,31062,Viçosa,-92,284,192,-294,518,224
3166105,Senhora do Porto,MG,-18.892221,-43.084164,3108,Vale do Rio Doce,31035,Guanhães,112,106,218,53,168,221
3166204,Senhora dos Remédios,MG,-21.028055,-43.5825,3111,Campo das Vertentes,31059,Barbacena,-113,307,194,-239,482,243
3166303,Sericita,MG,-20.47389,-42.481945,3112,Zona da Mata,31060,Ponte Nova,-189,405,216,-217,489,272
3166402,Seritinga,MG,-21.909166,-44.519165,3110,Sul/Sudoeste de Minas,31055,Andrelândia,47,41,88,15,67,82
3166501,Serra Azul de Minas,MG,-18.361944,-43.170002,3107,Metropolitana de Belo Horizonte,31028,Conceição do Mato Dentro,-350,433,83,-467,578,111
3166600,Serra da Saudade,MG,-19.437777,-45.795834,3106,Central Mineira,31026,Bom Despacho,19,99,118,-1,145,144
3166808,Serra do Salitre,MG,-19.111389,-46.689724,3105,Triângulo Mineiro/Alto Paranaíba,31019,Patrocínio,88,140,228,39,184,223
3166709,Serra dos Aimorés,MG,-17.782499,-40.247501,3104,Vale do Mucuri,31016,Nanuque,218,601,819,304,576,880
3166907,Serrania,MG,-21.548056,-46.039722,3110,Sul/Sudoeste de Minas,31049,Alfenas,-319,561,242,-266,541,275
3166956,Serranópolis de Minas,MG,-15.828611,-42.871387,3102,Norte de Minas,31004,Janaúba,-47,186,139,-96,261,165
3167004,Serranos,MG,-21.890278,-44.509998,3110,Sul/Sudoeste de Minas,31055,Andrelândia,-8,131,123,-10,146,136
3167103,Serro,MG,-18.604723,-43.379444,3107,Metropolitana de Belo Horizonte,31028,Conceição do Mato Dentro,-997,1627,630,-1225,2023,798
3167202,Sete Lagoas,MG,-19.465834,-44.246666,3107,Metropolitana de Belo Horizonte,31027,Sete Lagoas,4116,6950,11066,4258,8474,12732
3165552,Setubinha,MG,-17.725555,-42.272778,3104,Vale do Mucuri,31015,Teófilo Otoni,-85,190,105,-118,240,122
3167301,Silveirânia,MG,-21.158888,-43.215279,3112,Zona da Mata,31064,Ubá,186,258,444,81,399,480
3167400,Silvianópolis,MG,-22.029444,-45.834999,3110,Sul/Sudoeste de Minas,31053,Santa Rita do Sapucaí,45,87,132,67,92,159
3167509,Simão Pereira,MG,-21.963612,-43.311943,3112,Zona da Mata,31065,Juiz de Fora,151,767,918,-13,1052,1039
3167608,Simonésia,MG,-20.12389,-42.001389,3112,Zona da Mata,31061,Manhuaçu,50,259,309,-62,436,374
3167707,Sobrália,MG,-19.234722,-42.098331,3108,Vale do Rio Doce,31037,Governador Valadares,82,182,264,70,217,287
3167806,Soledade de Minas,MG,-22.059999,-45.044998,3110,Sul/Sudoeste de Minas,31054,São Lourenço,-122,307,185,-127,362,235
3167905,Tabuleiro,MG,-21.358889,-43.24778,3112,Zona da Mata,31064,Ubá,217,957,1174,255,1086,1341
3168002,Taiobeiras,MG,-15.807778,-42.233055,3102,Norte de Minas,31005,Salinas,-35,246,211,-44,286,242
3168051,Taparuba,MG,-19.758612,-41.615555,3108,Vale do Rio Doce,31041,Aimorés,-20,221,201,61,204,265
3168101,Tapira,MG,-19.922222,-46.823055,3105,Triângulo Mineiro/Alto Paranaíba,31023,Araxá,-50,253,203,-27,231,204
3168200,Tapiraí,MG,-19.887777,-46.020279,3109,Oeste de Minas,31042,Piuí,183,180,363,288,157,445
3168309,Taquaraçu de Minas,MG,-19.669722,-43.687222,3107,Metropolitana de Belo Horizonte,31031,Itabira,-308,1063,755,-585,1495,910
3168408,Tarumirim,MG,-19.280832,-42.006668,3108,Vale do Rio Doce,31040,Caratinga,-304,862,558,-203,800,597
3168507,Teixeiras,MG,-20.651112,-42.856667,3112,Zona da Mata,31062,Viçosa,-1072,6368,5296,-2166,8589,6423
3168606,Teófilo Otoni,MG,-17.8575,-41.50528,3104,Vale do Mucuri,31015,Teófilo Otoni,641,3662,4303,192,4680,4872
3168705,Timóteo,MG,-19.5825,-42.644447,3108,Vale do Rio Doce,31039,Ipatinga,244,249,493,279,250,529
3168804,Tiradentes,MG,-21.110279,-44.178059,3111,Campo das Vertentes,31058,São João Del Rei,-195,504,309,-255,605,350
3168903,Tiros,MG,-19.003889,-45.964447,3105,Triângulo Mineiro/Alto Paranaíba,31020,Patos de Minas,168,562,730,30,734,764
3169000,Tocantins,MG,-21.174999,-43.017776,3112,Zona da Mata,31064,Ubá,71,63,134,36,92,128
3169059,Tocos do Moji,MG,-22.370556,-46.095554,3110,Sul/Sudoeste de Minas,31052,Pouso Alegre,40,53,93,40,61,101
3169109,Toledo,MG,-22.743055,-46.371944,3110,Sul/Sudoeste de Minas,31052,Pouso Alegre,69,213,282,44,251,295
3169208,Tombos,MG,-20.904722,-42.022778,3112,Zona da Mata,31063,Muriaé,-71,2450,2379,-325,3009,2684
3169307,Três Corações,MG,-21.696943,-45.253334,3110,Sul/Sudoeste de Minas,31050,Varginha,377,1755,2132,503,2108,2611
3169356,Três Marias,MG,-18.20639,-45.241669,3106,Central Mineira,31024,Três Marias,-1064,2746,1682,-1267,3284,2017
3169406,Três Pontas,MG,-21.366667,-45.512501,3110,Sul/Sudoeste de Minas,31050,Varginha,399,156,555,344,252,596
3169505,Tumiritinga,MG,-18.979168,-41.645279,3108,Vale do Rio Doce,31037,Governador Valadares,95,1315,1410,-68,1647,1579
3169604,Tupaciguara,MG,-18.592222,-48.705002,3105,Triângulo Mineiro/Alto Paranaíba,31018,Uberlândia,12,839,851,-3,971,968
3169703,Turmalina,MG,-17.285555,-42.73,3103,Jequitinhonha,31011,Capelinha,125,161,286,43,287,330
3169802,Turvolândia,MG,-21.875555,-45.786945,3110,Sul/Sudoeste de Minas,31053,Santa Rita do Sapucaí,1108,3379,4487,1607,3987,5594
3169901,Ubá,MG,-21.120001,-42.94278,3112,Zona da Mata,31064,Ubá,-192,549,357,-196,620,424
3170008,Ubaí,MG,-16.285276,-44.778057,3102,Norte de Minas,31007,Montes Claros,172,634,806,229,699,928
3170057,Ubaporanga,MG,-19.635277,-42.105553,3108,Vale do Rio Doce,31040,Caratinga,2312,7202,9514,3931,7640,11571
3170107,Uberaba,MG,-19.748333,-47.931946,3105,Triângulo Mineiro/Alto Paranaíba,31022,Uberaba,13173,14567,27740,14814,15685,30499
3170206,Uberlândia,MG,-18.91861,-48.277222,3105,Triângulo Mineiro/Alto Paranaíba,31018,Uberlândia,-56,181,125,-79,221,142
3170305,Umburatiba,MG,-17.255833,-40.572777,3104,Vale do Mucuri,31016,Nanuque,-954,2836,1882,-590,3404,2814
3170404,Unaí,MG,-16.3575,-46.906113,3101,Noroeste de Minas,31001,Unaí,-42,336,294,2,356,358
3170438,União de Minas,MG,-19.530277,-50.335831,3105,Triângulo Mineiro/Alto Paranaíba,31021,Frutal,70,113,183,68,145,213
3170479,Uruana de Minas,MG,-16.064165,-46.254166,3101,Noroeste de Minas,31001,Unaí,-152,661,509,-39,629,590
3170503,Urucânia,MG,-20.350834,-42.739445,3112,Zona da Mata,31060,Ponte Nova,111,533,644,29,661,690
3170529,Urucuia,MG,-16.1325,-45.742222,3102,Norte de Minas,31003,Januária,-215,564,349,-170,605,435
3170578,Vargem Alegre,MG,-19.608334,-42.298332,3108,Vale do Rio Doce,31040,Caratinga,-194,433,239,-252,550,298
3170602,Vargem Bonita,MG,-20.326668,-46.366108,3109,Oeste de Minas,31042,Piuí,-177,287,110,-215,328,113
3170651,Vargem Grande do Rio Pardo,MG,-15.402778,-42.307499,3102,Norte de Minas,31005,Salinas,2040,3762,5802,2029,4377,6406
3170701,Varginha,MG,-21.551388,-45.430279,3110,Sul/Sudoeste de Minas,31050,Varginha,265,478,743,394,381,775
3170750,Varjão de Minas,MG,-18.377777,-46.031666,3101,Noroeste de Minas,31002,Paracatu,-633,2277,1644,-837,2817,1980
3170800,Várzea da Palma,MG,-17.598057,-44.730835,3102,Norte de Minas,31006,Pirapora,-616,1031,415,-847,1320,473
3170909,Varzelândia,MG,-15.701388,-44.0275,3102,Norte de Minas,31007,Montes Claros,-767,1586,819,-669,1709,1040
3171006,Vazante,MG,-17.986944,-46.90778,3101,Noroeste de Minas,31002,Paracatu,22,379,401,129,385,514
3171030,Verdelândia,MG,-15.589167,-43.602776,3102,Norte de Minas,31007,Montes Claros,-98,272,174,-145,329,184
3171071,Veredinha,MG,-17.399445,-42.735558,3103,Jequitinhonha,31011,Capelinha,187,312,499,123,388,511
3171105,Veríssimo,MG,-19.663334,-48.308334,3105,Triângulo Mineiro/Alto Paranaíba,31022,Uberaba,-89,321,232,-156,415,259
3171154,Vermelho Novo,MG,-20.03611,-42.266945,3112,Zona da Mata,31060,Ponte Nova,7338,3879,11217,8091,4084,12175
3171204,Vespasiano,MG,-19.691944,-43.923336,3107,Metropolitana de Belo Horizonte,31030,Belo Horizonte,250,4473,4723,642,4345,4987
3171303,Viçosa,MG,-20.753889,-42.881943,3112,Zona da Mata,31062,Viçosa,8,182,190,-46,232,186
3171402,Vieiras,MG,-20.865833,-42.24361,3112,Zona da Mata,31063,Muriaé,-84,200,116,-87,232,145
3171600,Virgem da Lapa,MG,-16.804443,-42.343056,3103,Jequitinhonha,31012,Araçuaí,-49,480,431,-149,621,472
3171709,Virgínia,MG,-22.333334,-45.091667,3110,Sul/Sudoeste de Minas,31056,Itajubá,-92,296,204,-66,337,271
3171808,Virginópolis,MG,-18.822779,-42.703888,3108,Vale do Rio Doce,31035,Guanhães,-172,708,536,-175,889,714
3171907,Virgolândia,MG,-18.475834,-42.306667,3108,Vale do Rio Doce,31037,Governador Valadares,-205,542,337,-175,619,444
3172004,Visconde do Rio Branco,MG,-21.010279,-42.840553,3112,Zona da Mata,31064,Ubá,701,1052,1753,708,1422,2130
3172103,Volta Grande,MG,-21.770555,-42.538887,3112,Zona da Mata,31066,Cataguases,-88,266,178,-115,306,191
3172202,Wenceslau Braz,MG,-22.534445,-45.362778,3110,Sul/Sudoeste de Minas,31056,Itajubá,97,64,161,61,117,178
